{
 "version": 1,
 "generated": "2026-04-29",
 "source": "wikitrail.org (CC BY-SA 3.0)",
 "features": [
  {
   "id": "25630",
   "name": "Unicoi, TN",
   "kind": "town",
   "slug": "unicoi-tn",
   "lat": 36.195386,
   "lon": -82.349582,
   "mi_springer": null,
   "off": 0.0,
   "off_dir": "",
   "state": ""
  },
  {
   "id": "25967",
   "name": "Hampton, TN",
   "kind": "town",
   "slug": "hampton-tn",
   "lat": 36.286111,
   "lon": -82.171944,
   "mi_springer": null,
   "off": 0.0,
   "off_dir": "",
   "state": ""
  },
  {
   "id": "25361",
   "name": "Shady Valley, TN",
   "kind": "town",
   "slug": "shady-valley-tn",
   "lat": 36.519806,
   "lon": -81.930191,
   "mi_springer": null,
   "off": 0.0,
   "off_dir": "",
   "state": ""
  },
  {
   "id": "25308",
   "name": "Troutdale, VA",
   "kind": "town",
   "slug": "troutdale-va",
   "lat": 36.700833,
   "lon": -81.444722,
   "mi_springer": null,
   "off": 0.0,
   "off_dir": "",
   "state": ""
  },
  {
   "id": "5133532959604736",
   "name": "Troutdale, VA",
   "kind": "town",
   "slug": "troutdale-va",
   "lat": 36.704534,
   "lon": -81.43342,
   "mi_springer": null,
   "off": 0.0,
   "off_dir": "",
   "state": ""
  },
  {
   "id": "25500",
   "name": "Sugar Grove, VA",
   "kind": "town",
   "slug": "sugar-grove-va",
   "lat": 36.775673,
   "lon": -81.412331,
   "mi_springer": null,
   "off": 0.0,
   "off_dir": "",
   "state": ""
  },
  {
   "id": "25481",
   "name": "Suches GA",
   "kind": "town",
   "slug": "suches-ga",
   "lat": 34.688979,
   "lon": -84.022136,
   "mi_springer": null,
   "off": 0.0,
   "off_dir": "",
   "state": ""
  },
  {
   "id": "25599",
   "name": "Hiawassee, GA",
   "kind": "town",
   "slug": "hiawassee-ga",
   "lat": 34.949259,
   "lon": -83.757395,
   "mi_springer": null,
   "off": 0.0,
   "off_dir": "",
   "state": ""
  },
  {
   "id": "25869",
   "name": "Franklin, NC",
   "kind": "town",
   "slug": "franklin-nc",
   "lat": 35.182317,
   "lon": -83.381543,
   "mi_springer": null,
   "off": 0.0,
   "off_dir": "",
   "state": ""
  },
  {
   "id": "25529",
   "name": "Fontana Dam, NC",
   "kind": "town",
   "slug": "fontana-dam-nc",
   "lat": 35.449188,
   "lon": -83.80906,
   "mi_springer": null,
   "off": 0.0,
   "off_dir": "",
   "state": ""
  },
  {
   "id": "25707",
   "name": "Gatlinburg, TN",
   "kind": "town",
   "slug": "gatlinburg-tn",
   "lat": 35.714259,
   "lon": -83.510164,
   "mi_springer": null,
   "off": 0.0,
   "off_dir": "",
   "state": ""
  },
  {
   "id": "25944",
   "name": "Hemlock Hollow Farm Shoppe and Cabins",
   "kind": "hostel",
   "slug": "hemlock-hollow-farm-shoppe-and-cabins",
   "lat": 36.004181,
   "lon": -82.780809,
   "mi_springer": null,
   "off": 0.0,
   "off_dir": "",
   "state": ""
  },
  {
   "id": "25432",
   "name": "Mountain Harbour BB and Hiker Hostel",
   "kind": "hostel",
   "slug": "mountain-harbour-bb-and-hiker-hostel",
   "lat": 36.179073,
   "lon": -82.016444,
   "mi_springer": null,
   "off": 0.0,
   "off_dir": "",
   "state": ""
  },
  {
   "id": "25601",
   "name": "Kincora Hiking Hostel",
   "kind": "hostel",
   "slug": "kincora-hiking-hostel",
   "lat": 36.262093,
   "lon": -82.128436,
   "mi_springer": null,
   "off": 0.0,
   "off_dir": "",
   "state": ""
  },
  {
   "id": "25519",
   "name": "Bastian, VA",
   "kind": "town",
   "slug": "bastian-va",
   "lat": 37.151944,
   "lon": -81.150278,
   "mi_springer": null,
   "off": 0.0,
   "off_dir": "",
   "state": ""
  },
  {
   "id": "25862",
   "name": "Pearisburg, VA",
   "kind": "town",
   "slug": "pearisburg-va",
   "lat": 37.326511,
   "lon": -80.735071,
   "mi_springer": null,
   "off": 0.0,
   "off_dir": "",
   "state": ""
  },
  {
   "id": "25461",
   "name": "Catawba, VA",
   "kind": "town",
   "slug": "catawba-va",
   "lat": 37.381733,
   "lon": -80.110023,
   "mi_springer": null,
   "off": 0.0,
   "off_dir": "",
   "state": ""
  },
  {
   "id": "25907",
   "name": "Troutville, VA",
   "kind": "town",
   "slug": "troutville-va",
   "lat": 37.41819,
   "lon": -79.874763,
   "mi_springer": null,
   "off": 0.0,
   "off_dir": "",
   "state": ""
  },
  {
   "id": "25899",
   "name": "Buchanan, VA",
   "kind": "town",
   "slug": "buchanan-va",
   "lat": 37.527357,
   "lon": -79.679761,
   "mi_springer": null,
   "off": 0.0,
   "off_dir": "",
   "state": ""
  },
  {
   "id": "25911",
   "name": "Big Island, VA",
   "kind": "town",
   "slug": "big-island-va",
   "lat": 37.533595,
   "lon": -79.359612,
   "mi_springer": null,
   "off": 0.0,
   "off_dir": "",
   "state": ""
  },
  {
   "id": "25322",
   "name": "Buena Vista, VA",
   "kind": "town",
   "slug": "buena-vista-va",
   "lat": 37.7343,
   "lon": -79.353924,
   "mi_springer": null,
   "off": 0.0,
   "off_dir": "",
   "state": ""
  },
  {
   "id": "25882",
   "name": "Montebello, VA",
   "kind": "town",
   "slug": "montebello-va",
   "lat": 37.864677,
   "lon": -79.135849,
   "mi_springer": null,
   "off": 0.0,
   "off_dir": "",
   "state": ""
  },
  {
   "id": "25877",
   "name": "Waynesboro, VA",
   "kind": "town",
   "slug": "waynesboro-va",
   "lat": 38.068469,
   "lon": -78.889468,
   "mi_springer": null,
   "off": 0.0,
   "off_dir": "",
   "state": ""
  },
  {
   "id": "25991",
   "name": "Elkton, VA",
   "kind": "town",
   "slug": "elkton-va",
   "lat": 38.407904,
   "lon": -78.623628,
   "mi_springer": null,
   "off": 0.0,
   "off_dir": "",
   "state": ""
  },
  {
   "id": "26006",
   "name": "Luray, VA",
   "kind": "town",
   "slug": "luray-va",
   "lat": 38.665397,
   "lon": -78.459452,
   "mi_springer": null,
   "off": 0.0,
   "off_dir": "",
   "state": ""
  },
  {
   "id": "25534",
   "name": "Front Royal Terrapin Hostel",
   "kind": "hostel",
   "slug": "front-royal-terrapin-hostel",
   "lat": 38.850605,
   "lon": -78.149636,
   "mi_springer": null,
   "off": 0.0,
   "off_dir": "",
   "state": ""
  },
  {
   "id": "25993",
   "name": "Front Royal, VA",
   "kind": "town",
   "slug": "front-royal-va",
   "lat": 38.918167,
   "lon": -78.194445,
   "mi_springer": null,
   "off": 0.0,
   "off_dir": "",
   "state": ""
  },
  {
   "id": "25999",
   "name": "Linden, VA",
   "kind": "town",
   "slug": "linden-va",
   "lat": 38.908195,
   "lon": -78.075287,
   "mi_springer": null,
   "off": 0.0,
   "off_dir": "",
   "state": ""
  },
  {
   "id": "25951",
   "name": "Bears Den Hostel",
   "kind": "hostel",
   "slug": "bears-den-hostel",
   "lat": 39.110929,
   "lon": -77.854085,
   "mi_springer": null,
   "off": 0.0,
   "off_dir": "",
   "state": ""
  },
  {
   "id": "25473",
   "name": "Bluemont, VA",
   "kind": "town",
   "slug": "bluemont-va",
   "lat": 39.111217,
   "lon": -77.833884,
   "mi_springer": null,
   "off": 0.0,
   "off_dir": "",
   "state": ""
  },
  {
   "id": "25954",
   "name": "Boonsboro, MD",
   "kind": "town",
   "slug": "boonsboro-md",
   "lat": 39.506211,
   "lon": -77.652491,
   "mi_springer": null,
   "off": 0.0,
   "off_dir": "",
   "state": ""
  },
  {
   "id": "25968",
   "name": "Smithsburg, MD",
   "kind": "town",
   "slug": "smithsburg-md",
   "lat": 39.654819,
   "lon": -77.572768,
   "mi_springer": null,
   "off": 0.0,
   "off_dir": "",
   "state": ""
  },
  {
   "id": "25953",
   "name": "Cascade, MD",
   "kind": "town",
   "slug": "cascade-md",
   "lat": 39.710092,
   "lon": -77.491117,
   "mi_springer": null,
   "off": 0.0,
   "off_dir": "",
   "state": ""
  },
  {
   "id": "25320",
   "name": "Blue Ridge Summit, PA",
   "kind": "town",
   "slug": "blue-ridge-summit-pa",
   "lat": 39.724167,
   "lon": -77.471667,
   "mi_springer": null,
   "off": 0.0,
   "off_dir": "",
   "state": ""
  },
  {
   "id": "25743",
   "name": "South Mountain, PA",
   "kind": "town",
   "slug": "south-mountain-pa",
   "lat": 39.846482,
   "lon": -77.487766,
   "mi_springer": null,
   "off": 0.0,
   "off_dir": "",
   "state": ""
  },
  {
   "id": "25730",
   "name": "Fayetteville, PA",
   "kind": "town",
   "slug": "fayetteville-pa",
   "lat": 39.911203,
   "lon": -77.549989,
   "mi_springer": null,
   "off": 0.0,
   "off_dir": "",
   "state": ""
  },
  {
   "id": "25764",
   "name": "Mt. Holly Springs, PA",
   "kind": "town",
   "slug": "mt-holly-springs-pa",
   "lat": 40.118423,
   "lon": -77.189982,
   "mi_springer": null,
   "off": 0.0,
   "off_dir": "",
   "state": ""
  },
  {
   "id": "25691",
   "name": "Hamburg, PA",
   "kind": "town",
   "slug": "hamburg-pa",
   "lat": 40.555648,
   "lon": -75.981877,
   "mi_springer": null,
   "off": 0.0,
   "off_dir": "",
   "state": ""
  },
  {
   "id": "25748",
   "name": "Slatington, PA",
   "kind": "town",
   "slug": "slatington-pa",
   "lat": 40.748429,
   "lon": -75.611853,
   "mi_springer": null,
   "off": 0.0,
   "off_dir": "",
   "state": ""
  },
  {
   "id": "25521",
   "name": "Palmerton, PA",
   "kind": "town",
   "slug": "palmerton-pa",
   "lat": 40.801483,
   "lon": -75.610187,
   "mi_springer": null,
   "off": 0.0,
   "off_dir": "",
   "state": ""
  },
  {
   "id": "25710",
   "name": "Danielsville, PA",
   "kind": "town",
   "slug": "danielsville-pa",
   "lat": 40.794792,
   "lon": -75.53294,
   "mi_springer": null,
   "off": 0.0,
   "off_dir": "",
   "state": ""
  },
  {
   "id": "25714",
   "name": "Wind Gap, PA",
   "kind": "town",
   "slug": "wind-gap-pa",
   "lat": 40.848151,
   "lon": -75.291569,
   "mi_springer": null,
   "off": 0.0,
   "off_dir": "",
   "state": ""
  },
  {
   "id": "25527",
   "name": "Delaware Water Gap, PA",
   "kind": "town",
   "slug": "delaware-water-gap-pa",
   "lat": 40.979262,
   "lon": -75.142956,
   "mi_springer": null,
   "off": 0.0,
   "off_dir": "",
   "state": ""
  },
  {
   "id": "25818",
   "name": "Branchville, NJ",
   "kind": "town",
   "slug": "branchville-nj",
   "lat": 41.146485,
   "lon": -74.752387,
   "mi_springer": null,
   "off": 0.0,
   "off_dir": "",
   "state": ""
  },
  {
   "id": "25848",
   "name": "Unionville, NY",
   "kind": "town",
   "slug": "unionville-ny",
   "lat": 41.302039,
   "lon": -74.561549,
   "mi_springer": null,
   "off": 0.0,
   "off_dir": "",
   "state": ""
  },
  {
   "id": "25833",
   "name": "Glenwood, NJ",
   "kind": "town",
   "slug": "glenwood-nj",
   "lat": 41.251824,
   "lon": -74.487392,
   "mi_springer": null,
   "off": 0.0,
   "off_dir": "",
   "state": ""
  },
  {
   "id": "25836",
   "name": "Vernon, NJ",
   "kind": "town",
   "slug": "vernon-nj",
   "lat": 41.194702,
   "lon": -74.493794,
   "mi_springer": null,
   "off": 0.0,
   "off_dir": "",
   "state": ""
  },
  {
   "id": "25749",
   "name": "Warwick, NY",
   "kind": "town",
   "slug": "warwick-ny",
   "lat": 41.256483,
   "lon": -74.359876,
   "mi_springer": null,
   "off": 0.0,
   "off_dir": "",
   "state": ""
  },
  {
   "id": "25363",
   "name": "Southfields, NY",
   "kind": "town",
   "slug": "southfields-ny",
   "lat": 41.244676,
   "lon": -74.175852,
   "mi_springer": null,
   "off": 0.0,
   "off_dir": "",
   "state": ""
  },
  {
   "id": "25787",
   "name": "Ft. Montgomery, NY",
   "kind": "town",
   "slug": "ft-montgomery-ny",
   "lat": 41.331483,
   "lon": -73.986807,
   "mi_springer": null,
   "off": 0.0,
   "off_dir": "",
   "state": ""
  },
  {
   "id": "25784",
   "name": "Peekskill, NY",
   "kind": "town",
   "slug": "peekskill-ny",
   "lat": 41.290094,
   "lon": -73.920416,
   "mi_springer": null,
   "off": 0.0,
   "off_dir": "",
   "state": ""
  },
  {
   "id": "25769",
   "name": "Stormville, NY",
   "kind": "town",
   "slug": "stormville-ny",
   "lat": 41.57028,
   "lon": -73.74583,
   "mi_springer": null,
   "off": 0.0,
   "off_dir": "",
   "state": ""
  },
  {
   "id": "25493",
   "name": "Poughquag, NY",
   "kind": "town",
   "slug": "poughquag-ny",
   "lat": 41.60342,
   "lon": -73.682945,
   "mi_springer": null,
   "off": 0.0,
   "off_dir": "",
   "state": ""
  },
  {
   "id": "25756",
   "name": "Pawling, NY",
   "kind": "town",
   "slug": "pawling-ny",
   "lat": 41.562038,
   "lon": -73.602627,
   "mi_springer": null,
   "off": 0.0,
   "off_dir": "",
   "state": ""
  },
  {
   "id": "25806",
   "name": "Wingdale, NY",
   "kind": "town",
   "slug": "wingdale-ny",
   "lat": 41.646868,
   "lon": -73.567825,
   "mi_springer": null,
   "off": 0.0,
   "off_dir": "",
   "state": ""
  },
  {
   "id": "25807",
   "name": "Gaylordsville, CT",
   "kind": "town",
   "slug": "gaylordsville-ct",
   "lat": 41.646483,
   "lon": -73.484291,
   "mi_springer": null,
   "off": 0.0,
   "off_dir": "",
   "state": ""
  },
  {
   "id": "25943",
   "name": "Kent, CT",
   "kind": "town",
   "slug": "kent-ct",
   "lat": 41.724755,
   "lon": -73.476964,
   "mi_springer": null,
   "off": 0.0,
   "off_dir": "",
   "state": ""
  },
  {
   "id": "25605",
   "name": "Cornwall Bridge, CT",
   "kind": "town",
   "slug": "cornwall-bridge-ct",
   "lat": 41.818283,
   "lon": -73.368271,
   "mi_springer": null,
   "off": 0.0,
   "off_dir": "",
   "state": ""
  },
  {
   "id": "25741",
   "name": "West Cornwall, CT",
   "kind": "town",
   "slug": "west-cornwall-ct",
   "lat": 41.871425,
   "lon": -73.361796,
   "mi_springer": null,
   "off": 0.0,
   "off_dir": "",
   "state": ""
  },
  {
   "id": "25055",
   "name": "Falls Village, CT",
   "kind": "town",
   "slug": "falls-village-ct",
   "lat": 41.95502,
   "lon": -73.365058,
   "mi_springer": null,
   "off": 0.0,
   "off_dir": "",
   "state": ""
  },
  {
   "id": "25024",
   "name": "Salisbury, CT",
   "kind": "town",
   "slug": "salisbury-ct",
   "lat": 41.981567,
   "lon": -73.422501,
   "mi_springer": null,
   "off": 0.0,
   "off_dir": "",
   "state": ""
  },
  {
   "id": "25940",
   "name": "South Egremont, MA",
   "kind": "town",
   "slug": "south-egremont-ma",
   "lat": 42.160646,
   "lon": -73.416226,
   "mi_springer": null,
   "off": 0.0,
   "off_dir": "",
   "state": ""
  },
  {
   "id": "25037",
   "name": "Great Barrington, MA",
   "kind": "town",
   "slug": "great-barrington-ma",
   "lat": 42.19598,
   "lon": -73.362008,
   "mi_springer": null,
   "off": 0.0,
   "off_dir": "",
   "state": ""
  },
  {
   "id": "25917",
   "name": "Monterey, MA",
   "kind": "town",
   "slug": "monterey-ma",
   "lat": 42.181013,
   "lon": -73.205759,
   "mi_springer": null,
   "off": 0.0,
   "off_dir": "",
   "state": ""
  },
  {
   "id": "25015",
   "name": "Tyringham, MA",
   "kind": "town",
   "slug": "tyringham-ma",
   "lat": 42.245833,
   "lon": -73.204167,
   "mi_springer": null,
   "off": 0.0,
   "off_dir": "",
   "state": ""
  },
  {
   "id": "25026",
   "name": "Upper Goose Pond Cabin",
   "kind": "hostel",
   "slug": "upper-goose-pond-cabin",
   "lat": 42.288019,
   "lon": -73.181416,
   "mi_springer": null,
   "off": 0.0,
   "off_dir": "",
   "state": ""
  },
  {
   "id": "25512",
   "name": "Lee, MA",
   "kind": "town",
   "slug": "lee-ma",
   "lat": 42.304215,
   "lon": -73.248195,
   "mi_springer": null,
   "off": 0.0,
   "off_dir": "",
   "state": ""
  },
  {
   "id": "25256",
   "name": "Cheshire, MA",
   "kind": "town",
   "slug": "cheshire-ma",
   "lat": 42.557079,
   "lon": -73.157158,
   "mi_springer": null,
   "off": 0.0,
   "off_dir": "",
   "state": ""
  },
  {
   "id": "25595",
   "name": "Adams, MA",
   "kind": "town",
   "slug": "adams-ma",
   "lat": 42.624225,
   "lon": -73.117434,
   "mi_springer": null,
   "off": 0.0,
   "off_dir": "",
   "state": ""
  },
  {
   "id": "25265",
   "name": "Williamstown, MA",
   "kind": "town",
   "slug": "williamstown-ma",
   "lat": 42.71202,
   "lon": -73.20369,
   "mi_springer": null,
   "off": 0.0,
   "off_dir": "",
   "state": ""
  },
  {
   "id": "25258",
   "name": "Bennington, VT",
   "kind": "town",
   "slug": "bennington-vt",
   "lat": 42.878094,
   "lon": -73.1968,
   "mi_springer": null,
   "off": 0.0,
   "off_dir": "",
   "state": ""
  },
  {
   "id": "25234",
   "name": "Manchester Center, VT",
   "kind": "town",
   "slug": "manchester-center-vt",
   "lat": 43.177021,
   "lon": -73.057049,
   "mi_springer": null,
   "off": 0.0,
   "off_dir": "",
   "state": ""
  },
  {
   "id": "25151",
   "name": "Danby, VT",
   "kind": "town",
   "slug": "danby-vt",
   "lat": 43.354834,
   "lon": -73.04755,
   "mi_springer": null,
   "off": 0.0,
   "off_dir": "",
   "state": ""
  },
  {
   "id": "25224",
   "name": "Wallingford, VT",
   "kind": "town",
   "slug": "wallingford-vt",
   "lat": 43.471747,
   "lon": -72.977369,
   "mi_springer": null,
   "off": 0.0,
   "off_dir": "",
   "state": ""
  },
  {
   "id": "25336",
   "name": "Rutland, VT",
   "kind": "town",
   "slug": "rutland-vt",
   "lat": 43.610624,
   "lon": -72.972606,
   "mi_springer": null,
   "off": 0.0,
   "off_dir": "",
   "state": ""
  },
  {
   "id": "25327",
   "name": "Killington, VT",
   "kind": "town",
   "slug": "killington-vt",
   "lat": 43.664722,
   "lon": -72.793333,
   "mi_springer": null,
   "off": 0.0,
   "off_dir": "",
   "state": ""
  },
  {
   "id": "25356",
   "name": "Woodstock, VT",
   "kind": "town",
   "slug": "woodstock-vt",
   "lat": 43.624244,
   "lon": -72.518511,
   "mi_springer": null,
   "off": 0.0,
   "off_dir": "",
   "state": ""
  },
  {
   "id": "25354",
   "name": "South Pomfret, VT",
   "kind": "town",
   "slug": "south-pomfret-vt",
   "lat": 43.665069,
   "lon": -72.53954,
   "mi_springer": null,
   "off": 0.0,
   "off_dir": "",
   "state": ""
  },
  {
   "id": "25294",
   "name": "Lyme, NH",
   "kind": "town",
   "slug": "lyme-nh",
   "lat": 43.810278,
   "lon": -72.156111,
   "mi_springer": null,
   "off": 0.0,
   "off_dir": "",
   "state": ""
  },
  {
   "id": "25969",
   "name": "Wentworth, NH",
   "kind": "town",
   "slug": "wentworth-nh",
   "lat": 43.869331,
   "lon": -71.917084,
   "mi_springer": null,
   "off": 0.0,
   "off_dir": "",
   "state": ""
  },
  {
   "id": "25321",
   "name": "Warren, NH",
   "kind": "town",
   "slug": "warren-nh",
   "lat": 43.924722,
   "lon": -71.891667,
   "mi_springer": null,
   "off": 0.0,
   "off_dir": "",
   "state": ""
  },
  {
   "id": "25301",
   "name": "North Woodstock, NH",
   "kind": "town",
   "slug": "north-woodstock-nh",
   "lat": 44.030205,
   "lon": -71.686493,
   "mi_springer": null,
   "off": 0.0,
   "off_dir": "",
   "state": ""
  },
  {
   "id": "25309",
   "name": "Lincoln, NH",
   "kind": "town",
   "slug": "lincoln-nh",
   "lat": 44.0453,
   "lon": -71.6708,
   "mi_springer": null,
   "off": 0.0,
   "off_dir": "",
   "state": ""
  },
  {
   "id": "25457",
   "name": "Bartlett, NH",
   "kind": "town",
   "slug": "bartlett-nh",
   "lat": 44.076944,
   "lon": -71.221111,
   "mi_springer": null,
   "off": 0.0,
   "off_dir": "",
   "state": ""
  },
  {
   "id": "25729",
   "name": "Andover, ME",
   "kind": "town",
   "slug": "andover-me",
   "lat": 44.635556,
   "lon": -70.751667,
   "mi_springer": null,
   "off": 0.0,
   "off_dir": "",
   "state": ""
  },
  {
   "id": "25206",
   "name": "Oquossoc, ME",
   "kind": "town",
   "slug": "oquossoc-me",
   "lat": 44.966443,
   "lon": -70.77368,
   "mi_springer": null,
   "off": 0.0,
   "off_dir": "",
   "state": ""
  },
  {
   "id": "25347",
   "name": "Rangeley, ME",
   "kind": "town",
   "slug": "rangeley-me",
   "lat": 44.965682,
   "lon": -70.64271,
   "mi_springer": null,
   "off": 0.0,
   "off_dir": "",
   "state": ""
  },
  {
   "id": "25211",
   "name": "Stratton, ME",
   "kind": "town",
   "slug": "stratton-me",
   "lat": 45.140496,
   "lon": -70.438292,
   "mi_springer": null,
   "off": 0.0,
   "off_dir": "",
   "state": ""
  },
  {
   "id": "25160",
   "name": "Caratunk, ME",
   "kind": "town",
   "slug": "caratunk-me",
   "lat": 45.233573,
   "lon": -69.990347,
   "mi_springer": null,
   "off": 0.0,
   "off_dir": "",
   "state": ""
  },
  {
   "id": "25393",
   "name": "Monson, ME",
   "kind": "town",
   "slug": "monson-me",
   "lat": 45.286944,
   "lon": -69.501667,
   "mi_springer": null,
   "off": 0.0,
   "off_dir": "",
   "state": ""
  },
  {
   "id": "25063",
   "name": "Millinocket, ME",
   "kind": "town",
   "slug": "millinocket-me",
   "lat": 45.657264,
   "lon": -68.709812,
   "mi_springer": null,
   "off": 0.0,
   "off_dir": "",
   "state": ""
  },
  {
   "id": "28757",
   "slug": "clarences-restaurant",
   "name": "Clarences Restaurant",
   "kind": "restaurant",
   "lat": 36.195386,
   "lon": -82.349582,
   "mi_springer": null,
   "off": 0.0,
   "off_dir": "",
   "state": "",
   "parent_town": "Unicoi, TN"
  },
  {
   "id": "28755",
   "slug": "maple-grove-restaurant",
   "name": "Maple Grove Restaurant",
   "kind": "restaurant",
   "lat": 36.195386,
   "lon": -82.349582,
   "mi_springer": null,
   "off": 0.0,
   "off_dir": "",
   "state": "",
   "parent_town": "Unicoi, TN"
  },
  {
   "id": "28756",
   "slug": "unicoi-tn-po",
   "name": "Unicoi, TN PO",
   "kind": "maildrop",
   "lat": 36.195386,
   "lon": -82.349582,
   "mi_springer": null,
   "off": 0.0,
   "off_dir": "",
   "state": "",
   "parent_town": "Unicoi, TN"
  },
  {
   "id": "28349",
   "slug": "iron-mountain-inn-b-and-b",
   "name": "Iron Mountain Inn B and B",
   "kind": "hotel",
   "lat": 36.286111,
   "lon": -82.171944,
   "mi_springer": null,
   "off": 0.0,
   "off_dir": "",
   "state": "",
   "parent_town": "Hampton, TN"
  },
  {
   "id": "28348",
   "slug": "lake-house",
   "name": "Lake House",
   "kind": "hotel",
   "lat": 36.286111,
   "lon": -82.171944,
   "mi_springer": null,
   "off": 0.0,
   "off_dir": "",
   "state": "",
   "parent_town": "Hampton, TN"
  },
  {
   "id": "28345",
   "slug": "browns-grocery",
   "name": "Browns Grocery",
   "kind": "resupply",
   "lat": 36.286111,
   "lon": -82.171944,
   "mi_springer": null,
   "off": 0.0,
   "off_dir": "",
   "state": "",
   "parent_town": "Hampton, TN"
  },
  {
   "id": "28346",
   "slug": "hampton-trails-bicycle-shop",
   "name": "Hampton Trails Bicycle Shop",
   "kind": "service",
   "lat": 36.286111,
   "lon": -82.171944,
   "mi_springer": null,
   "off": 0.0,
   "off_dir": "",
   "state": "",
   "parent_town": "Hampton, TN"
  },
  {
   "id": "28347",
   "slug": "hampton-tn-po",
   "name": "Hampton, TN PO",
   "kind": "maildrop",
   "lat": 36.286111,
   "lon": -82.171944,
   "mi_springer": null,
   "off": 0.0,
   "off_dir": "",
   "state": "",
   "parent_town": "Hampton, TN"
  },
  {
   "id": "28674",
   "slug": "shady-valley-tn-po",
   "name": "Shady Valley, TN PO",
   "kind": "maildrop",
   "lat": 36.519806,
   "lon": -81.930191,
   "mi_springer": null,
   "off": 0.0,
   "off_dir": "",
   "state": "",
   "parent_town": "Shady Valley, TN"
  },
  {
   "id": "28747",
   "slug": "fox-hill-inn",
   "name": "Fox Hill Inn",
   "kind": "hotel",
   "lat": 36.700833,
   "lon": -81.444722,
   "mi_springer": null,
   "off": 0.0,
   "off_dir": "",
   "state": "",
   "parent_town": "Troutdale, VA"
  },
  {
   "id": "28746",
   "slug": "troutdale-baptist-church",
   "name": "Troutdale Baptist Church",
   "kind": "hostel",
   "lat": 36.700833,
   "lon": -81.444722,
   "mi_springer": null,
   "off": 0.0,
   "off_dir": "",
   "state": "",
   "parent_town": "Troutdale, VA"
  },
  {
   "id": "28748",
   "slug": "jerrys-kitchen-and-goods",
   "name": "Jerrys Kitchen and Goods",
   "kind": "restaurant",
   "lat": 36.700833,
   "lon": -81.444722,
   "mi_springer": null,
   "off": 0.0,
   "off_dir": "",
   "state": "",
   "parent_town": "Troutdale, VA"
  },
  {
   "id": "28745",
   "slug": "troutdale-va-po",
   "name": "Troutdale, VA PO",
   "kind": "maildrop",
   "lat": 36.700833,
   "lon": -81.444722,
   "mi_springer": null,
   "off": 0.0,
   "off_dir": "",
   "state": "",
   "parent_town": "Troutdale, VA"
  },
  {
   "id": "5693973771321344",
   "slug": "rush-exxon-station",
   "name": "RUSH Exxon Station",
   "kind": "restaurant",
   "lat": 36.775673,
   "lon": -81.412331,
   "mi_springer": null,
   "off": 0.0,
   "off_dir": "",
   "state": "",
   "parent_town": "Sugar Grove, VA"
  },
  {
   "id": "28730",
   "slug": "sugar-grove-va-po",
   "name": "Sugar Grove, VA PO",
   "kind": "maildrop",
   "lat": 36.775673,
   "lon": -81.412331,
   "mi_springer": null,
   "off": 0.0,
   "off_dir": "",
   "state": "",
   "parent_town": "Sugar Grove, VA"
  },
  {
   "id": "28725",
   "slug": "two-wheels-only",
   "name": "Two Wheels Only",
   "kind": "hostel",
   "lat": 34.688979,
   "lon": -84.022136,
   "mi_springer": null,
   "off": 0.0,
   "off_dir": "",
   "state": "",
   "parent_town": "Suches GA"
  },
  {
   "id": "28727",
   "slug": "suches-general-store",
   "name": "Suches General Store",
   "kind": "resupply",
   "lat": 34.688979,
   "lon": -84.022136,
   "mi_springer": null,
   "off": 0.0,
   "off_dir": "",
   "state": "",
   "parent_town": "Suches GA"
  },
  {
   "id": "28726",
   "slug": "don-l-pruitt-md",
   "name": "Don L. Pruitt, M.D.",
   "kind": "medical",
   "lat": 34.688979,
   "lon": -84.022136,
   "mi_springer": null,
   "off": 0.0,
   "off_dir": "",
   "state": "",
   "parent_town": "Suches GA"
  },
  {
   "id": "28728",
   "slug": "suches-ga-po",
   "name": "Suches GA PO",
   "kind": "maildrop",
   "lat": 34.688979,
   "lon": -84.022136,
   "mi_springer": null,
   "off": 0.0,
   "off_dir": "",
   "state": "",
   "parent_town": "Suches GA"
  },
  {
   "id": "28729",
   "slug": "wes-wisson",
   "name": "Wes Wisson",
   "kind": "service",
   "lat": 34.688979,
   "lon": -84.022136,
   "mi_springer": null,
   "off": 0.0,
   "off_dir": "",
   "state": "",
   "parent_town": "Suches GA"
  },
  {
   "id": "28381",
   "slug": "hiawassee-budget-inn",
   "name": "Hiawassee Budget Inn",
   "kind": "hotel",
   "lat": 34.949259,
   "lon": -83.757395,
   "mi_springer": null,
   "off": 0.0,
   "off_dir": "",
   "state": "",
   "parent_town": "Hiawassee, GA"
  },
  {
   "id": "28389",
   "slug": "holiday-inn-express",
   "name": "Holiday Inn Express",
   "kind": "hotel",
   "lat": 34.949259,
   "lon": -83.757395,
   "mi_springer": null,
   "off": 0.0,
   "off_dir": "",
   "state": "",
   "parent_town": "Hiawassee, GA"
  },
  {
   "id": "28388",
   "slug": "mulls-motel",
   "name": "Mulls Motel",
   "kind": "hotel",
   "lat": 34.949259,
   "lon": -83.757395,
   "mi_springer": null,
   "off": 0.0,
   "off_dir": "",
   "state": "",
   "parent_town": "Hiawassee, GA"
  },
  {
   "id": "28380",
   "slug": "the-buckhead-house",
   "name": "The Buckhead House",
   "kind": "hotel",
   "lat": 34.949259,
   "lon": -83.757395,
   "mi_springer": null,
   "off": 0.0,
   "off_dir": "",
   "state": "",
   "parent_town": "Hiawassee, GA"
  },
  {
   "id": "28385",
   "slug": "china-grill",
   "name": "China Grill",
   "kind": "restaurant",
   "lat": 34.949259,
   "lon": -83.757395,
   "mi_springer": null,
   "off": 0.0,
   "off_dir": "",
   "state": "",
   "parent_town": "Hiawassee, GA"
  },
  {
   "id": "28386",
   "slug": "daniels-steakhouse",
   "name": "Daniels Steakhouse",
   "kind": "restaurant",
   "lat": 34.949259,
   "lon": -83.757395,
   "mi_springer": null,
   "off": 0.0,
   "off_dir": "",
   "state": "",
   "parent_town": "Hiawassee, GA"
  },
  {
   "id": "28383",
   "slug": "dills-food-city",
   "name": "Dills Food City",
   "kind": "resupply",
   "lat": 34.949259,
   "lon": -83.757395,
   "mi_springer": null,
   "off": 0.0,
   "off_dir": "",
   "state": "",
   "parent_town": "Hiawassee, GA"
  },
  {
   "id": "28387",
   "slug": "georgia-mountain-restaurant",
   "name": "Georgia Mountain Restaurant",
   "kind": "restaurant",
   "lat": 34.949259,
   "lon": -83.757395,
   "mi_springer": null,
   "off": 0.0,
   "off_dir": "",
   "state": "",
   "parent_town": "Hiawassee, GA"
  },
  {
   "id": "28382",
   "slug": "ingles",
   "name": "Ingles",
   "kind": "resupply",
   "lat": 34.949259,
   "lon": -83.757395,
   "mi_springer": null,
   "off": 0.0,
   "off_dir": "",
   "state": "",
   "parent_town": "Hiawassee, GA"
  },
  {
   "id": "28384",
   "slug": "chatugue-regional-hospital",
   "name": "Chatugue Regional Hospital",
   "kind": "medical",
   "lat": 34.949259,
   "lon": -83.757395,
   "mi_springer": null,
   "off": 0.0,
   "off_dir": "",
   "state": "",
   "parent_town": "Hiawassee, GA"
  },
  {
   "id": "28379",
   "slug": "hiawassee-ga-po",
   "name": "Hiawassee, GA PO",
   "kind": "maildrop",
   "lat": 34.949259,
   "lon": -83.757395,
   "mi_springer": null,
   "off": 0.0,
   "off_dir": "",
   "state": "",
   "parent_town": "Hiawassee, GA"
  },
  {
   "id": "28260",
   "slug": "franklin-motel",
   "name": "Franklin Motel",
   "kind": "hotel",
   "lat": 35.182317,
   "lon": -83.381543,
   "mi_springer": null,
   "off": 0.0,
   "off_dir": "",
   "state": "",
   "parent_town": "Franklin, NC"
  },
  {
   "id": "28259",
   "slug": "havens-budget-inn",
   "name": "Havens Budget Inn",
   "kind": "hotel",
   "lat": 35.182317,
   "lon": -83.381543,
   "mi_springer": null,
   "off": 0.0,
   "off_dir": "",
   "state": "",
   "parent_town": "Franklin, NC"
  },
  {
   "id": "28256",
   "slug": "microtel-inn--suites",
   "name": "Microtel Inn  Suites",
   "kind": "hotel",
   "lat": 35.182317,
   "lon": -83.381543,
   "mi_springer": null,
   "off": 0.0,
   "off_dir": "",
   "state": "",
   "parent_town": "Franklin, NC"
  },
  {
   "id": "28254",
   "slug": "ingles",
   "name": "Ingles",
   "kind": "resupply",
   "lat": 35.182317,
   "lon": -83.381543,
   "mi_springer": null,
   "off": 0.0,
   "off_dir": "",
   "state": "",
   "parent_town": "Franklin, NC"
  },
  {
   "id": "36425004",
   "slug": "outdoor-76",
   "name": "Outdoor 76",
   "kind": "resupply",
   "lat": 35.182317,
   "lon": -83.381543,
   "mi_springer": null,
   "off": 0.0,
   "off_dir": "",
   "state": "",
   "parent_town": "Franklin, NC"
  },
  {
   "id": "28258",
   "slug": "shoneys",
   "name": "Shoneys",
   "kind": "restaurant",
   "lat": 35.182317,
   "lon": -83.381543,
   "mi_springer": null,
   "off": 0.0,
   "off_dir": "",
   "state": "",
   "parent_town": "Franklin, NC"
  },
  {
   "id": "28264",
   "slug": "angel-urgent-care-center",
   "name": "Angel Urgent Care Center",
   "kind": "medical",
   "lat": 35.182317,
   "lon": -83.381543,
   "mi_springer": null,
   "off": 0.0,
   "off_dir": "",
   "state": "",
   "parent_town": "Franklin, NC"
  },
  {
   "id": "28255",
   "slug": "franklin-nc-po",
   "name": "Franklin, NC PO",
   "kind": "maildrop",
   "lat": 35.182317,
   "lon": -83.381543,
   "mi_springer": null,
   "off": 0.0,
   "off_dir": "",
   "state": "",
   "parent_town": "Franklin, NC"
  },
  {
   "id": "28262",
   "slug": "larrys-taxi-and-shuttle",
   "name": "Larrys Taxi and Shuttle",
   "kind": "service",
   "lat": 35.182317,
   "lon": -83.381543,
   "mi_springer": null,
   "off": 0.0,
   "off_dir": "",
   "state": "",
   "parent_town": "Franklin, NC"
  },
  {
   "id": "28261",
   "slug": "roadrunner-driving-services",
   "name": "Roadrunner Driving Services",
   "kind": "service",
   "lat": 35.182317,
   "lon": -83.381543,
   "mi_springer": null,
   "off": 0.0,
   "off_dir": "",
   "state": "",
   "parent_town": "Franklin, NC"
  },
  {
   "id": "28263",
   "slug": "three-eagles-outfitters",
   "name": "Three Eagles Outfitters",
   "kind": "outfitter",
   "lat": 35.182317,
   "lon": -83.381543,
   "mi_springer": null,
   "off": 0.0,
   "off_dir": "",
   "state": "",
   "parent_town": "Franklin, NC"
  },
  {
   "id": "28252",
   "slug": "fontana-lodge",
   "name": "Fontana Lodge",
   "kind": "hotel",
   "lat": 35.449188,
   "lon": -83.80906,
   "mi_springer": null,
   "off": 0.0,
   "off_dir": "",
   "state": "",
   "parent_town": "Fontana Dam, NC"
  },
  {
   "id": "28253",
   "slug": "fontana-general-store",
   "name": "Fontana General Store",
   "kind": "resupply",
   "lat": 35.449188,
   "lon": -83.80906,
   "mi_springer": null,
   "off": 0.0,
   "off_dir": "",
   "state": "",
   "parent_town": "Fontana Dam, NC"
  },
  {
   "id": "28251",
   "slug": "fontana-dam-nc-po",
   "name": "Fontana Dam, NC PO",
   "kind": "maildrop",
   "lat": 35.449188,
   "lon": -83.80906,
   "mi_springer": null,
   "off": 0.0,
   "off_dir": "",
   "state": "",
   "parent_town": "Fontana Dam, NC"
  },
  {
   "id": "28250",
   "slug": "hazel-creek-outfitter",
   "name": "Hazel Creek Outfitter",
   "kind": "outfitter",
   "lat": 35.449188,
   "lon": -83.80906,
   "mi_springer": null,
   "off": 0.0,
   "off_dir": "",
   "state": "",
   "parent_town": "Fontana Dam, NC"
  },
  {
   "id": "28294",
   "slug": "dudley-creek-plaza-motel",
   "name": "Dudley Creek Plaza Motel",
   "kind": "hotel",
   "lat": 35.714259,
   "lon": -83.510164,
   "mi_springer": null,
   "off": 0.0,
   "off_dir": "",
   "state": "",
   "parent_town": "Gatlinburg, TN"
  },
  {
   "id": "28296",
   "slug": "grand-prix-motel",
   "name": "Grand Prix Motel",
   "kind": "hotel",
   "lat": 35.714259,
   "lon": -83.510164,
   "mi_springer": null,
   "off": 0.0,
   "off_dir": "",
   "state": "",
   "parent_town": "Gatlinburg, TN"
  },
  {
   "id": "28288",
   "slug": "battles-food-center",
   "name": "Battles Food Center",
   "kind": "resupply",
   "lat": 35.714259,
   "lon": -83.510164,
   "mi_springer": null,
   "off": 0.0,
   "off_dir": "",
   "state": "",
   "parent_town": "Gatlinburg, TN"
  },
  {
   "id": "28290",
   "slug": "food-city",
   "name": "Food City",
   "kind": "resupply",
   "lat": 35.714259,
   "lon": -83.510164,
   "mi_springer": null,
   "off": 0.0,
   "off_dir": "",
   "state": "",
   "parent_town": "Gatlinburg, TN"
  },
  {
   "id": "28293",
   "slug": "shoneys",
   "name": "Shoneys",
   "kind": "restaurant",
   "lat": 35.714259,
   "lon": -83.510164,
   "mi_springer": null,
   "off": 0.0,
   "off_dir": "",
   "state": "",
   "parent_town": "Gatlinburg, TN"
  },
  {
   "id": "28289",
   "slug": "gatlinburg-tn-po",
   "name": "Gatlinburg, TN PO",
   "kind": "maildrop",
   "lat": 35.714259,
   "lon": -83.510164,
   "mi_springer": null,
   "off": 0.0,
   "off_dir": "",
   "state": "",
   "parent_town": "Gatlinburg, TN"
  },
  {
   "id": "28292",
   "slug": "great-smoky-mountain-outfitters",
   "name": "Great Smoky Mountain Outfitters",
   "kind": "outfitter",
   "lat": 35.714259,
   "lon": -83.510164,
   "mi_springer": null,
   "off": 0.0,
   "off_dir": "",
   "state": "",
   "parent_town": "Gatlinburg, TN"
  },
  {
   "id": "28295",
   "slug": "nocs-great-outpost",
   "name": "NOCs Great Outpost",
   "kind": "outfitter",
   "lat": 35.714259,
   "lon": -83.510164,
   "mi_springer": null,
   "off": 0.0,
   "off_dir": "",
   "state": "",
   "parent_town": "Gatlinburg, TN"
  },
  {
   "id": "28030",
   "slug": "bastian-va-po",
   "name": "Bastian, VA PO",
   "kind": "maildrop",
   "lat": 37.151944,
   "lon": -81.150278,
   "mi_springer": null,
   "off": 0.0,
   "off_dir": "",
   "state": "",
   "parent_town": "Bastian, VA"
  },
  {
   "id": "28031",
   "slug": "medical-clinic",
   "name": "Medical Clinic",
   "kind": "medical",
   "lat": 37.151944,
   "lon": -81.150278,
   "mi_springer": null,
   "off": 0.0,
   "off_dir": "",
   "state": "",
   "parent_town": "Bastian, VA"
  },
  {
   "id": "28592",
   "slug": "holiday-motor-lodge",
   "name": "Holiday Motor Lodge",
   "kind": "hotel",
   "lat": 37.326511,
   "lon": -80.735071,
   "mi_springer": null,
   "off": 0.0,
   "off_dir": "",
   "state": "",
   "parent_town": "Pearisburg, VA"
  },
  {
   "id": "28591",
   "slug": "holy-family-church-hostel",
   "name": "Holy Family Church Hostel",
   "kind": "hostel",
   "lat": 37.326511,
   "lon": -80.735071,
   "mi_springer": null,
   "off": 0.0,
   "off_dir": "",
   "state": "",
   "parent_town": "Pearisburg, VA"
  },
  {
   "id": "28589",
   "slug": "plaza-motel",
   "name": "Plaza Motel",
   "kind": "hotel",
   "lat": 37.326511,
   "lon": -80.735071,
   "mi_springer": null,
   "off": 0.0,
   "off_dir": "",
   "state": "",
   "parent_town": "Pearisburg, VA"
  },
  {
   "id": "28580",
   "slug": "courthouse-cafe",
   "name": "Courthouse Cafe",
   "kind": "restaurant",
   "lat": 37.326511,
   "lon": -80.735071,
   "mi_springer": null,
   "off": 0.0,
   "off_dir": "",
   "state": "",
   "parent_town": "Pearisburg, VA"
  },
  {
   "id": "28593",
   "slug": "food-lion",
   "name": "Food Lion",
   "kind": "resupply",
   "lat": 37.326511,
   "lon": -80.735071,
   "mi_springer": null,
   "off": 0.0,
   "off_dir": "",
   "state": "",
   "parent_town": "Pearisburg, VA"
  },
  {
   "id": "28587",
   "slug": "lucky-star-chinese",
   "name": "Lucky Star Chinese",
   "kind": "restaurant",
   "lat": 37.326511,
   "lon": -80.735071,
   "mi_springer": null,
   "off": 0.0,
   "off_dir": "",
   "state": "",
   "parent_town": "Pearisburg, VA"
  },
  {
   "id": "28585",
   "slug": "pizza-hut",
   "name": "Pizza Hut",
   "kind": "restaurant",
   "lat": 37.326511,
   "lon": -80.735071,
   "mi_springer": null,
   "off": 0.0,
   "off_dir": "",
   "state": "",
   "parent_town": "Pearisburg, VA"
  },
  {
   "id": "28586",
   "slug": "pizza-plus",
   "name": "Pizza Plus",
   "kind": "restaurant",
   "lat": 37.326511,
   "lon": -80.735071,
   "mi_springer": null,
   "off": 0.0,
   "off_dir": "",
   "state": "",
   "parent_town": "Pearisburg, VA"
  },
  {
   "id": "28588",
   "slug": "rite-aid",
   "name": "Rite Aid",
   "kind": "resupply",
   "lat": 37.326511,
   "lon": -80.735071,
   "mi_springer": null,
   "off": 0.0,
   "off_dir": "",
   "state": "",
   "parent_town": "Pearisburg, VA"
  },
  {
   "id": "28594",
   "slug": "sav-a-lot",
   "name": "Sav-a-Lot",
   "kind": "resupply",
   "lat": 37.326511,
   "lon": -80.735071,
   "mi_springer": null,
   "off": 0.0,
   "off_dir": "",
   "state": "",
   "parent_town": "Pearisburg, VA"
  },
  {
   "id": "28579",
   "slug": "don-raines",
   "name": "Don Raines",
   "kind": "service",
   "lat": 37.326511,
   "lon": -80.735071,
   "mi_springer": null,
   "off": 0.0,
   "off_dir": "",
   "state": "",
   "parent_town": "Pearisburg, VA"
  },
  {
   "id": "28581",
   "slug": "pearisburg-va-po",
   "name": "Pearisburg, VA PO",
   "kind": "maildrop",
   "lat": 37.326511,
   "lon": -80.735071,
   "mi_springer": null,
   "off": 0.0,
   "off_dir": "",
   "state": "",
   "parent_town": "Pearisburg, VA"
  },
  {
   "id": "28584",
   "slug": "tom-hoffman",
   "name": "Tom Hoffman",
   "kind": "service",
   "lat": 37.326511,
   "lon": -80.735071,
   "mi_springer": null,
   "off": 0.0,
   "off_dir": "",
   "state": "",
   "parent_town": "Pearisburg, VA"
  },
  {
   "id": "28123",
   "slug": "catawba-valley-general-store",
   "name": "Catawba Valley General Store",
   "kind": "restaurant",
   "lat": 37.381733,
   "lon": -80.110023,
   "mi_springer": null,
   "off": 0.0,
   "off_dir": "",
   "state": "",
   "parent_town": "Catawba, VA"
  },
  {
   "id": "28125",
   "slug": "homeplace-restaurant",
   "name": "Homeplace Restaurant",
   "kind": "restaurant",
   "lat": 37.381733,
   "lon": -80.110023,
   "mi_springer": null,
   "off": 0.0,
   "off_dir": "",
   "state": "",
   "parent_town": "Catawba, VA"
  },
  {
   "id": "28124",
   "slug": "catawba-va-po",
   "name": "Catawba, VA PO",
   "kind": "maildrop",
   "lat": 37.381733,
   "lon": -80.110023,
   "mi_springer": null,
   "off": 0.0,
   "off_dir": "",
   "state": "",
   "parent_town": "Catawba, VA"
  },
  {
   "id": "28749",
   "slug": "troutville-va-po",
   "name": "Troutville, VA PO",
   "kind": "maildrop",
   "lat": 37.41819,
   "lon": -79.874763,
   "mi_springer": null,
   "off": 0.0,
   "off_dir": "",
   "state": "",
   "parent_town": "Troutville, VA"
  },
  {
   "id": "28096",
   "slug": "wattstull-motel--restaurant",
   "name": "Wattstull Motel  Restaurant",
   "kind": "hotel",
   "lat": 37.527357,
   "lon": -79.679761,
   "mi_springer": null,
   "off": 0.0,
   "off_dir": "",
   "state": "",
   "parent_town": "Buchanan, VA"
  },
  {
   "id": "28097",
   "slug": "buchanan-va-po",
   "name": "Buchanan, VA PO",
   "kind": "maildrop",
   "lat": 37.527357,
   "lon": -79.679761,
   "mi_springer": null,
   "off": 0.0,
   "off_dir": "",
   "state": "",
   "parent_town": "Buchanan, VA"
  },
  {
   "id": "28047",
   "slug": "h-and-h-market",
   "name": "H and H Market",
   "kind": "resupply",
   "lat": 37.533595,
   "lon": -79.359612,
   "mi_springer": null,
   "off": 0.0,
   "off_dir": "",
   "state": "",
   "parent_town": "Big Island, VA"
  },
  {
   "id": "28046",
   "slug": "big-island-va-po",
   "name": "Big Island, VA PO",
   "kind": "maildrop",
   "lat": 37.533595,
   "lon": -79.359612,
   "mi_springer": null,
   "off": 0.0,
   "off_dir": "",
   "state": "",
   "parent_town": "Big Island, VA"
  },
  {
   "id": "28107",
   "slug": "budget-inn",
   "name": "Budget Inn",
   "kind": "hotel",
   "lat": 37.7343,
   "lon": -79.353924,
   "mi_springer": null,
   "off": 0.0,
   "off_dir": "",
   "state": "",
   "parent_town": "Buena Vista, VA"
  },
  {
   "id": "28099",
   "slug": "buena-vista-motel",
   "name": "Buena Vista Motel",
   "kind": "hotel",
   "lat": 37.7343,
   "lon": -79.353924,
   "mi_springer": null,
   "off": 0.0,
   "off_dir": "",
   "state": "",
   "parent_town": "Buena Vista, VA"
  },
  {
   "id": "28104",
   "slug": "glen-maury-campground",
   "name": "Glen Maury Campground",
   "kind": "hostel",
   "lat": 37.7343,
   "lon": -79.353924,
   "mi_springer": null,
   "off": 0.0,
   "off_dir": "",
   "state": "",
   "parent_town": "Buena Vista, VA"
  },
  {
   "id": "28105",
   "slug": "alexanders-ice-cream",
   "name": "Alexanders Ice Cream",
   "kind": "restaurant",
   "lat": 37.7343,
   "lon": -79.353924,
   "mi_springer": null,
   "off": 0.0,
   "off_dir": "",
   "state": "",
   "parent_town": "Buena Vista, VA"
  },
  {
   "id": "28106",
   "slug": "food-lion",
   "name": "Food Lion",
   "kind": "resupply",
   "lat": 37.7343,
   "lon": -79.353924,
   "mi_springer": null,
   "off": 0.0,
   "off_dir": "",
   "state": "",
   "parent_town": "Buena Vista, VA"
  },
  {
   "id": "28103",
   "slug": "franks-for-the-memories",
   "name": "Franks for the Memories",
   "kind": "restaurant",
   "lat": 37.7343,
   "lon": -79.353924,
   "mi_springer": null,
   "off": 0.0,
   "off_dir": "",
   "state": "",
   "parent_town": "Buena Vista, VA"
  },
  {
   "id": "28101",
   "slug": "todds-barbeque",
   "name": "Todds Barbeque",
   "kind": "restaurant",
   "lat": 37.7343,
   "lon": -79.353924,
   "mi_springer": null,
   "off": 0.0,
   "off_dir": "",
   "state": "",
   "parent_town": "Buena Vista, VA"
  },
  {
   "id": "28102",
   "slug": "buena-vista-va-po",
   "name": "Buena Vista, VA PO",
   "kind": "maildrop",
   "lat": 37.7343,
   "lon": -79.353924,
   "mi_springer": null,
   "off": 0.0,
   "off_dir": "",
   "state": "",
   "parent_town": "Buena Vista, VA"
  },
  {
   "id": "28100",
   "slug": "rockbridge-taxi-service",
   "name": "Rockbridge Taxi Service",
   "kind": "service",
   "lat": 37.7343,
   "lon": -79.353924,
   "mi_springer": null,
   "off": 0.0,
   "off_dir": "",
   "state": "",
   "parent_town": "Buena Vista, VA"
  },
  {
   "id": "28523",
   "slug": "dutch-haus-b-and-b",
   "name": "Dutch Haus B and B",
   "kind": "hotel",
   "lat": 37.864677,
   "lon": -79.135849,
   "mi_springer": null,
   "off": 0.0,
   "off_dir": "",
   "state": "",
   "parent_town": "Montebello, VA"
  },
  {
   "id": "28524",
   "slug": "montebello-camping-and-fishing",
   "name": "Montebello Camping and Fishing",
   "kind": "hostel",
   "lat": 37.864677,
   "lon": -79.135849,
   "mi_springer": null,
   "off": 0.0,
   "off_dir": "",
   "state": "",
   "parent_town": "Montebello, VA"
  },
  {
   "id": "28525",
   "slug": "montebello-va-po",
   "name": "Montebello, VA PO",
   "kind": "maildrop",
   "lat": 37.864677,
   "lon": -79.135849,
   "mi_springer": null,
   "off": 0.0,
   "off_dir": "",
   "state": "",
   "parent_town": "Montebello, VA"
  },
  {
   "id": "28796",
   "slug": "belle-hearth-b-and-b",
   "name": "Belle Hearth B and B",
   "kind": "hotel",
   "lat": 38.068469,
   "lon": -78.889468,
   "mi_springer": null,
   "off": 0.0,
   "off_dir": "",
   "state": "",
   "parent_town": "Waynesboro, VA"
  },
  {
   "id": "28800",
   "slug": "grace-evangelical-lutheran-church",
   "name": "Grace Evangelical Lutheran Church",
   "kind": "hostel",
   "lat": 38.068469,
   "lon": -78.889468,
   "mi_springer": null,
   "off": 0.0,
   "off_dir": "",
   "state": "",
   "parent_town": "Waynesboro, VA"
  },
  {
   "id": "28799",
   "slug": "quality-inn",
   "name": "Quality Inn",
   "kind": "hotel",
   "lat": 38.068469,
   "lon": -78.889468,
   "mi_springer": null,
   "off": 0.0,
   "off_dir": "",
   "state": "",
   "parent_town": "Waynesboro, VA"
  },
  {
   "id": "28801",
   "slug": "tree-streets-inn-b-and-b",
   "name": "Tree Streets Inn B and B",
   "kind": "hotel",
   "lat": 38.068469,
   "lon": -78.889468,
   "mi_springer": null,
   "off": 0.0,
   "off_dir": "",
   "state": "",
   "parent_town": "Waynesboro, VA"
  },
  {
   "id": "28802",
   "slug": "waynesboro-family-ymca",
   "name": "Waynesboro Family YMCA",
   "kind": "hostel",
   "lat": 38.068469,
   "lon": -78.889468,
   "mi_springer": null,
   "off": 0.0,
   "off_dir": "",
   "state": "",
   "parent_town": "Waynesboro, VA"
  },
  {
   "id": "35005",
   "slug": "kroger",
   "name": "Kroger",
   "kind": "resupply",
   "lat": 38.068469,
   "lon": -78.889468,
   "mi_springer": null,
   "off": 0.0,
   "off_dir": "",
   "state": "",
   "parent_town": "Waynesboro, VA"
  },
  {
   "id": "28795",
   "slug": "ming-garden",
   "name": "Ming Garden",
   "kind": "restaurant",
   "lat": 38.068469,
   "lon": -78.889468,
   "mi_springer": null,
   "off": 0.0,
   "off_dir": "",
   "state": "",
   "parent_town": "Waynesboro, VA"
  },
  {
   "id": "28798",
   "slug": "pizza-hut",
   "name": "Pizza Hut",
   "kind": "restaurant",
   "lat": 38.068469,
   "lon": -78.889468,
   "mi_springer": null,
   "off": 0.0,
   "off_dir": "",
   "state": "",
   "parent_town": "Waynesboro, VA"
  },
  {
   "id": "28803",
   "slug": "rockfish-gap-outfitters",
   "name": "Rockfish Gap Outfitters",
   "kind": "outfitter",
   "lat": 38.068469,
   "lon": -78.889468,
   "mi_springer": null,
   "off": 0.0,
   "off_dir": "",
   "state": "",
   "parent_town": "Waynesboro, VA"
  },
  {
   "id": "28797",
   "slug": "waynesboro-va-po",
   "name": "Waynesboro, VA PO",
   "kind": "maildrop",
   "lat": 38.068469,
   "lon": -78.889468,
   "mi_springer": null,
   "off": 0.0,
   "off_dir": "",
   "state": "",
   "parent_town": "Waynesboro, VA"
  },
  {
   "id": "28229",
   "slug": "elkton-va-po",
   "name": "Elkton, VA PO",
   "kind": "maildrop",
   "lat": 38.407904,
   "lon": -78.623628,
   "mi_springer": null,
   "off": 0.0,
   "off_dir": "",
   "state": "",
   "parent_town": "Elkton, VA"
  },
  {
   "id": "28477",
   "slug": "best-value-cardinal-inn",
   "name": "Best Value Cardinal Inn",
   "kind": "hotel",
   "lat": 38.665397,
   "lon": -78.459452,
   "mi_springer": null,
   "off": 0.0,
   "off_dir": "",
   "state": "",
   "parent_town": "Luray, VA"
  },
  {
   "id": "28476",
   "slug": "best-western-motel",
   "name": "Best Western Motel",
   "kind": "hotel",
   "lat": 38.665397,
   "lon": -78.459452,
   "mi_springer": null,
   "off": 0.0,
   "off_dir": "",
   "state": "",
   "parent_town": "Luray, VA"
  },
  {
   "id": "28481",
   "slug": "budget-inn",
   "name": "Budget Inn",
   "kind": "hotel",
   "lat": 38.665397,
   "lon": -78.459452,
   "mi_springer": null,
   "off": 0.0,
   "off_dir": "",
   "state": "",
   "parent_town": "Luray, VA"
  },
  {
   "id": "28478",
   "slug": "mountain--valley-shuttle-service",
   "name": "Mountain  Valley Shuttle Service",
   "kind": "hostel",
   "lat": 38.665397,
   "lon": -78.459452,
   "mi_springer": null,
   "off": 0.0,
   "off_dir": "",
   "state": "",
   "parent_town": "Luray, VA"
  },
  {
   "id": "28480",
   "slug": "anthonys-pizza-xii",
   "name": "Anthonys Pizza XII",
   "kind": "restaurant",
   "lat": 38.665397,
   "lon": -78.459452,
   "mi_springer": null,
   "off": 0.0,
   "off_dir": "",
   "state": "",
   "parent_town": "Luray, VA"
  },
  {
   "id": "28469",
   "slug": "east-wok",
   "name": "East Wok",
   "kind": "restaurant",
   "lat": 38.665397,
   "lon": -78.459452,
   "mi_springer": null,
   "off": 0.0,
   "off_dir": "",
   "state": "",
   "parent_town": "Luray, VA"
  },
  {
   "id": "28468",
   "slug": "farmers-foods",
   "name": "Farmers Foods",
   "kind": "resupply",
   "lat": 38.665397,
   "lon": -78.459452,
   "mi_springer": null,
   "off": 0.0,
   "off_dir": "",
   "state": "",
   "parent_town": "Luray, VA"
  },
  {
   "id": "28479",
   "slug": "food-lion",
   "name": "Food Lion",
   "kind": "resupply",
   "lat": 38.665397,
   "lon": -78.459452,
   "mi_springer": null,
   "off": 0.0,
   "off_dir": "",
   "state": "",
   "parent_town": "Luray, VA"
  },
  {
   "id": "28474",
   "slug": "mindis-mexican",
   "name": "Mindis Mexican",
   "kind": "restaurant",
   "lat": 38.665397,
   "lon": -78.459452,
   "mi_springer": null,
   "off": 0.0,
   "off_dir": "",
   "state": "",
   "parent_town": "Luray, VA"
  },
  {
   "id": "28470",
   "slug": "southern-station-diner",
   "name": "Southern Station Diner",
   "kind": "restaurant",
   "lat": 38.665397,
   "lon": -78.459452,
   "mi_springer": null,
   "off": 0.0,
   "off_dir": "",
   "state": "",
   "parent_town": "Luray, VA"
  },
  {
   "id": "28472",
   "slug": "walmart",
   "name": "Walmart",
   "kind": "resupply",
   "lat": 38.665397,
   "lon": -78.459452,
   "mi_springer": null,
   "off": 0.0,
   "off_dir": "",
   "state": "",
   "parent_town": "Luray, VA"
  },
  {
   "id": "28473",
   "slug": "appalachian-outdoors-adventures",
   "name": "Appalachian Outdoors Adventures",
   "kind": "outfitter",
   "lat": 38.665397,
   "lon": -78.459452,
   "mi_springer": null,
   "off": 0.0,
   "off_dir": "",
   "state": "",
   "parent_town": "Luray, VA"
  },
  {
   "id": "28475",
   "slug": "luray-va-po",
   "name": "Luray, VA PO",
   "kind": "maildrop",
   "lat": 38.665397,
   "lon": -78.459452,
   "mi_springer": null,
   "off": 0.0,
   "off_dir": "",
   "state": "",
   "parent_town": "Luray, VA"
  },
  {
   "id": "28274",
   "slug": "pioneer-motel",
   "name": "Pioneer Motel",
   "kind": "hotel",
   "lat": 38.918167,
   "lon": -78.194445,
   "mi_springer": null,
   "off": 0.0,
   "off_dir": "",
   "state": "",
   "parent_town": "Front Royal, VA"
  },
  {
   "id": "28267",
   "slug": "scottish-inns",
   "name": "Scottish Inns",
   "kind": "hotel",
   "lat": 38.918167,
   "lon": -78.194445,
   "mi_springer": null,
   "off": 0.0,
   "off_dir": "",
   "state": "",
   "parent_town": "Front Royal, VA"
  },
  {
   "id": "28278",
   "slug": "skyline-resort-motel",
   "name": "Skyline Resort Motel",
   "kind": "hotel",
   "lat": 38.918167,
   "lon": -78.194445,
   "mi_springer": null,
   "off": 0.0,
   "off_dir": "",
   "state": "",
   "parent_town": "Front Royal, VA"
  },
  {
   "id": "28270",
   "slug": "better-thymes",
   "name": "Better Thymes",
   "kind": "resupply",
   "lat": 38.918167,
   "lon": -78.194445,
   "mi_springer": null,
   "off": 0.0,
   "off_dir": "",
   "state": "",
   "parent_town": "Front Royal, VA"
  },
  {
   "id": "28276",
   "slug": "china-jade",
   "name": "China Jade",
   "kind": "restaurant",
   "lat": 38.918167,
   "lon": -78.194445,
   "mi_springer": null,
   "off": 0.0,
   "off_dir": "",
   "state": "",
   "parent_town": "Front Royal, VA"
  },
  {
   "id": "6257085717151744",
   "slug": "front-royal-brewery",
   "name": "Front Royal Brewery",
   "kind": "restaurant",
   "lat": 38.918167,
   "lon": -78.194445,
   "mi_springer": null,
   "off": 0.0,
   "off_dir": "",
   "state": "",
   "parent_town": "Front Royal, VA"
  },
  {
   "id": "28272",
   "slug": "martins",
   "name": "Martins",
   "kind": "resupply",
   "lat": 38.918167,
   "lon": -78.194445,
   "mi_springer": null,
   "off": 0.0,
   "off_dir": "",
   "state": "",
   "parent_town": "Front Royal, VA"
  },
  {
   "id": "28273",
   "slug": "pizza-hut",
   "name": "Pizza Hut",
   "kind": "restaurant",
   "lat": 38.918167,
   "lon": -78.194445,
   "mi_springer": null,
   "off": 0.0,
   "off_dir": "",
   "state": "",
   "parent_town": "Front Royal, VA"
  },
  {
   "id": "28277",
   "slug": "ace-taxi",
   "name": "Ace Taxi",
   "kind": "service",
   "lat": 38.918167,
   "lon": -78.194445,
   "mi_springer": null,
   "off": 0.0,
   "off_dir": "",
   "state": "",
   "parent_town": "Front Royal, VA"
  },
  {
   "id": "5178400385794048",
   "slug": "base-camp",
   "name": "Base Camp",
   "kind": "service",
   "lat": 38.918167,
   "lon": -78.194445,
   "mi_springer": null,
   "off": 0.0,
   "off_dir": "",
   "state": "",
   "parent_town": "Front Royal, VA"
  },
  {
   "id": "28268",
   "slug": "front-royal-va-po",
   "name": "Front Royal, VA PO",
   "kind": "maildrop",
   "lat": 38.918167,
   "lon": -78.194445,
   "mi_springer": null,
   "off": 0.0,
   "off_dir": "",
   "state": "",
   "parent_town": "Front Royal, VA"
  },
  {
   "id": "5765947616919552",
   "slug": "mountain-trails",
   "name": "Mountain Trails",
   "kind": "outfitter",
   "lat": 38.918167,
   "lon": -78.194445,
   "mi_springer": null,
   "off": 0.0,
   "off_dir": "",
   "state": "",
   "parent_town": "Front Royal, VA"
  },
  {
   "id": "5700165897814016",
   "slug": "ninas-shuttle-service-",
   "name": "Nina&#39;s Shuttle Service",
   "kind": "service",
   "lat": 38.918167,
   "lon": -78.194445,
   "mi_springer": null,
   "off": 0.0,
   "off_dir": "",
   "state": "",
   "parent_town": "Front Royal, VA"
  },
  {
   "id": "28271",
   "slug": "ramseys-hardware",
   "name": "Ramseys Hardware",
   "kind": "service",
   "lat": 38.918167,
   "lon": -78.194445,
   "mi_springer": null,
   "off": 0.0,
   "off_dir": "",
   "state": "",
   "parent_town": "Front Royal, VA"
  },
  {
   "id": "5170390271787008",
   "slug": "river--peak-outfitters",
   "name": "River &amp; Peak Outfitters",
   "kind": "outfitter",
   "lat": 38.918167,
   "lon": -78.194445,
   "mi_springer": null,
   "off": 0.0,
   "off_dir": "",
   "state": "",
   "parent_town": "Front Royal, VA"
  },
  {
   "id": "28266",
   "slug": "royal-taxi",
   "name": "Royal Taxi",
   "kind": "service",
   "lat": 38.918167,
   "lon": -78.194445,
   "mi_springer": null,
   "off": 0.0,
   "off_dir": "",
   "state": "",
   "parent_town": "Front Royal, VA"
  },
  {
   "id": "28458",
   "slug": "monterey-service-station",
   "name": "Monterey Service Station",
   "kind": "resupply",
   "lat": 38.908195,
   "lon": -78.075287,
   "mi_springer": null,
   "off": 0.0,
   "off_dir": "",
   "state": "",
   "parent_town": "Linden, VA"
  },
  {
   "id": "28457",
   "slug": "linden-va-po",
   "name": "Linden, VA PO",
   "kind": "maildrop",
   "lat": 38.908195,
   "lon": -78.075287,
   "mi_springer": null,
   "off": 0.0,
   "off_dir": "",
   "state": "",
   "parent_town": "Linden, VA"
  },
  {
   "id": "28065",
   "slug": "bluemont-va-po",
   "name": "Bluemont, VA PO",
   "kind": "maildrop",
   "lat": 39.111217,
   "lon": -77.833884,
   "mi_springer": null,
   "off": 0.0,
   "off_dir": "",
   "state": "",
   "parent_town": "Bluemont, VA"
  },
  {
   "id": "28083",
   "slug": "boonsboro-produce-market",
   "name": "Boonsboro Produce Market",
   "kind": "resupply",
   "lat": 39.506211,
   "lon": -77.652491,
   "mi_springer": null,
   "off": 0.0,
   "off_dir": "",
   "state": "",
   "parent_town": "Boonsboro, MD"
  },
  {
   "id": "28082",
   "slug": "cronise-market-place",
   "name": "Cronise Market Place",
   "kind": "resupply",
   "lat": 39.506211,
   "lon": -77.652491,
   "mi_springer": null,
   "off": 0.0,
   "off_dir": "",
   "state": "",
   "parent_town": "Boonsboro, MD"
  },
  {
   "id": "28077",
   "slug": "icing-bakery-and-cafe",
   "name": "Icing Bakery and Cafe",
   "kind": "restaurant",
   "lat": 39.506211,
   "lon": -77.652491,
   "mi_springer": null,
   "off": 0.0,
   "off_dir": "",
   "state": "",
   "parent_town": "Boonsboro, MD"
  },
  {
   "id": "28081",
   "slug": "subway",
   "name": "Subway",
   "kind": "restaurant",
   "lat": 39.506211,
   "lon": -77.652491,
   "mi_springer": null,
   "off": 0.0,
   "off_dir": "",
   "state": "",
   "parent_town": "Boonsboro, MD"
  },
  {
   "id": "28080",
   "slug": "boonsboro-md-po",
   "name": "Boonsboro, MD PO",
   "kind": "maildrop",
   "lat": 39.506211,
   "lon": -77.652491,
   "mi_springer": null,
   "off": 0.0,
   "off_dir": "",
   "state": "",
   "parent_town": "Boonsboro, MD"
  },
  {
   "id": "28079",
   "slug": "marcys-laundry",
   "name": "Marcys Laundry",
   "kind": "service",
   "lat": 39.506211,
   "lon": -77.652491,
   "mi_springer": null,
   "off": 0.0,
   "off_dir": "",
   "state": "",
   "parent_town": "Boonsboro, MD"
  },
  {
   "id": "28692",
   "slug": "food-lion",
   "name": "Food Lion",
   "kind": "resupply",
   "lat": 39.654819,
   "lon": -77.572768,
   "mi_springer": null,
   "off": 0.0,
   "off_dir": "",
   "state": "",
   "parent_town": "Smithsburg, MD"
  },
  {
   "id": "28688",
   "slug": "lewis-farm-market",
   "name": "Lewis Farm Market",
   "kind": "resupply",
   "lat": 39.654819,
   "lon": -77.572768,
   "mi_springer": null,
   "off": 0.0,
   "off_dir": "",
   "state": "",
   "parent_town": "Smithsburg, MD"
  },
  {
   "id": "28690",
   "slug": "smithsburg-market",
   "name": "Smithsburg Market",
   "kind": "resupply",
   "lat": 39.654819,
   "lon": -77.572768,
   "mi_springer": null,
   "off": 0.0,
   "off_dir": "",
   "state": "",
   "parent_town": "Smithsburg, MD"
  },
  {
   "id": "28687",
   "slug": "south-of-the-border",
   "name": "South of the Border",
   "kind": "restaurant",
   "lat": 39.654819,
   "lon": -77.572768,
   "mi_springer": null,
   "off": 0.0,
   "off_dir": "",
   "state": "",
   "parent_town": "Smithsburg, MD"
  },
  {
   "id": "28689",
   "slug": "ace-hardware",
   "name": "Ace Hardware",
   "kind": "service",
   "lat": 39.654819,
   "lon": -77.572768,
   "mi_springer": null,
   "off": 0.0,
   "off_dir": "",
   "state": "",
   "parent_town": "Smithsburg, MD"
  },
  {
   "id": "28691",
   "slug": "smithsburg-md-po",
   "name": "Smithsburg, MD PO",
   "kind": "maildrop",
   "lat": 39.654819,
   "lon": -77.572768,
   "mi_springer": null,
   "off": 0.0,
   "off_dir": "",
   "state": "",
   "parent_town": "Smithsburg, MD"
  },
  {
   "id": "28119",
   "slug": "gts-handimart",
   "name": "GTs Handimart",
   "kind": "restaurant",
   "lat": 39.710092,
   "lon": -77.491117,
   "mi_springer": null,
   "off": 0.0,
   "off_dir": "",
   "state": "",
   "parent_town": "Cascade, MD"
  },
  {
   "id": "28121",
   "slug": "sanders-market",
   "name": "Sanders Market",
   "kind": "resupply",
   "lat": 39.710092,
   "lon": -77.491117,
   "mi_springer": null,
   "off": 0.0,
   "off_dir": "",
   "state": "",
   "parent_town": "Cascade, MD"
  },
  {
   "id": "28120",
   "slug": "vinces-pizza",
   "name": "Vinces Pizza",
   "kind": "restaurant",
   "lat": 39.710092,
   "lon": -77.491117,
   "mi_springer": null,
   "off": 0.0,
   "off_dir": "",
   "state": "",
   "parent_town": "Cascade, MD"
  },
  {
   "id": "28118",
   "slug": "cascade-md-po",
   "name": "Cascade, MD PO",
   "kind": "maildrop",
   "lat": 39.710092,
   "lon": -77.491117,
   "mi_springer": null,
   "off": 0.0,
   "off_dir": "",
   "state": "",
   "parent_town": "Cascade, MD"
  },
  {
   "id": "28061",
   "slug": "mountain-shadows",
   "name": "Mountain Shadows",
   "kind": "restaurant",
   "lat": 39.724167,
   "lon": -77.471667,
   "mi_springer": null,
   "off": 0.0,
   "off_dir": "",
   "state": "",
   "parent_town": "Blue Ridge Summit, PA"
  },
  {
   "id": "28058",
   "slug": "summit-plaza",
   "name": "Summit Plaza",
   "kind": "restaurant",
   "lat": 39.724167,
   "lon": -77.471667,
   "mi_springer": null,
   "off": 0.0,
   "off_dir": "",
   "state": "",
   "parent_town": "Blue Ridge Summit, PA"
  },
  {
   "id": "28064",
   "slug": "blue-ridge-summit-medical-center",
   "name": "Blue Ridge Summit Medical Center",
   "kind": "medical",
   "lat": 39.724167,
   "lon": -77.471667,
   "mi_springer": null,
   "off": 0.0,
   "off_dir": "",
   "state": "",
   "parent_town": "Blue Ridge Summit, PA"
  },
  {
   "id": "28060",
   "slug": "blue-ridge-summit-pa-po",
   "name": "Blue Ridge Summit, PA PO",
   "kind": "maildrop",
   "lat": 39.724167,
   "lon": -77.471667,
   "mi_springer": null,
   "off": 0.0,
   "off_dir": "",
   "state": "",
   "parent_town": "Blue Ridge Summit, PA"
  },
  {
   "id": "28063",
   "slug": "jjs-laundromat",
   "name": "JJs Laundromat",
   "kind": "service",
   "lat": 39.724167,
   "lon": -77.471667,
   "mi_springer": null,
   "off": 0.0,
   "off_dir": "",
   "state": "",
   "parent_town": "Blue Ridge Summit, PA"
  },
  {
   "id": "28059",
   "slug": "true-value",
   "name": "True Value",
   "kind": "service",
   "lat": 39.724167,
   "lon": -77.471667,
   "mi_springer": null,
   "off": 0.0,
   "off_dir": "",
   "state": "",
   "parent_town": "Blue Ridge Summit, PA"
  },
  {
   "id": "28698",
   "slug": "south-mountain-pa-po",
   "name": "South Mountain, PA PO",
   "kind": "maildrop",
   "lat": 39.846482,
   "lon": -77.487766,
   "mi_springer": null,
   "off": 0.0,
   "off_dir": "",
   "state": "",
   "parent_town": "South Mountain, PA"
  },
  {
   "id": "28244",
   "slug": "rite-spot-motel",
   "name": "Rite Spot Motel",
   "kind": "hotel",
   "lat": 39.911203,
   "lon": -77.549989,
   "mi_springer": null,
   "off": 0.0,
   "off_dir": "",
   "state": "",
   "parent_town": "Fayetteville, PA"
  },
  {
   "id": "28245",
   "slug": "flamingo-family-restaurant",
   "name": "Flamingo Family Restaurant",
   "kind": "restaurant",
   "lat": 39.911203,
   "lon": -77.549989,
   "mi_springer": null,
   "off": 0.0,
   "off_dir": "",
   "state": "",
   "parent_town": "Fayetteville, PA"
  },
  {
   "id": "28246",
   "slug": "fayetteville-pa-po",
   "name": "Fayetteville, PA PO",
   "kind": "maildrop",
   "lat": 39.911203,
   "lon": -77.549989,
   "mi_springer": null,
   "off": 0.0,
   "off_dir": "",
   "state": "",
   "parent_town": "Fayetteville, PA"
  },
  {
   "id": "28537",
   "slug": "holly-inn-and-restaurant",
   "name": "Holly Inn and Restaurant",
   "kind": "hotel",
   "lat": 40.118423,
   "lon": -77.189982,
   "mi_springer": null,
   "off": 0.0,
   "off_dir": "",
   "state": "",
   "parent_town": "Mt. Holly Springs, PA"
  },
  {
   "id": "28539",
   "slug": "cassells-grill",
   "name": "Cassells Grill",
   "kind": "restaurant",
   "lat": 40.118423,
   "lon": -77.189982,
   "mi_springer": null,
   "off": 0.0,
   "off_dir": "",
   "state": "",
   "parent_town": "Mt. Holly Springs, PA"
  },
  {
   "id": "28536",
   "slug": "uni-mart",
   "name": "Uni-Mart",
   "kind": "resupply",
   "lat": 40.118423,
   "lon": -77.189982,
   "mi_springer": null,
   "off": 0.0,
   "off_dir": "",
   "state": "",
   "parent_town": "Mt. Holly Springs, PA"
  },
  {
   "id": "28538",
   "slug": "mt-holly-springs-pa-po",
   "name": "Mt. Holly Springs, PA PO",
   "kind": "maildrop",
   "lat": 40.118423,
   "lon": -77.189982,
   "mi_springer": null,
   "off": 0.0,
   "off_dir": "",
   "state": "",
   "parent_town": "Mt. Holly Springs, PA"
  },
  {
   "id": "28341",
   "slug": "microtel-inn",
   "name": "Microtel Inn",
   "kind": "hotel",
   "lat": 40.555648,
   "lon": -75.981877,
   "mi_springer": null,
   "off": 0.0,
   "off_dir": "",
   "state": "",
   "parent_town": "Hamburg, PA"
  },
  {
   "id": "28342",
   "slug": "cabelas",
   "name": "Cabelas",
   "kind": "restaurant",
   "lat": 40.555648,
   "lon": -75.981877,
   "mi_springer": null,
   "off": 0.0,
   "off_dir": "",
   "state": "",
   "parent_town": "Hamburg, PA"
  },
  {
   "id": "28343",
   "slug": "cracker-barrel",
   "name": "Cracker Barrel",
   "kind": "restaurant",
   "lat": 40.555648,
   "lon": -75.981877,
   "mi_springer": null,
   "off": 0.0,
   "off_dir": "",
   "state": "",
   "parent_town": "Hamburg, PA"
  },
  {
   "id": "28344",
   "slug": "shell-station",
   "name": "Shell station",
   "kind": "resupply",
   "lat": 40.555648,
   "lon": -75.981877,
   "mi_springer": null,
   "off": 0.0,
   "off_dir": "",
   "state": "",
   "parent_town": "Hamburg, PA"
  },
  {
   "id": "28340",
   "slug": "taco-bell",
   "name": "Taco Bell",
   "kind": "restaurant",
   "lat": 40.555648,
   "lon": -75.981877,
   "mi_springer": null,
   "off": 0.0,
   "off_dir": "",
   "state": "",
   "parent_town": "Hamburg, PA"
  },
  {
   "id": "28339",
   "slug": "walmart",
   "name": "Walmart",
   "kind": "resupply",
   "lat": 40.555648,
   "lon": -75.981877,
   "mi_springer": null,
   "off": 0.0,
   "off_dir": "",
   "state": "",
   "parent_town": "Hamburg, PA"
  },
  {
   "id": "28337",
   "slug": "wendys",
   "name": "Wendys",
   "kind": "restaurant",
   "lat": 40.555648,
   "lon": -75.981877,
   "mi_springer": null,
   "off": 0.0,
   "off_dir": "",
   "state": "",
   "parent_town": "Hamburg, PA"
  },
  {
   "id": "28338",
   "slug": "hamburg-pa-po",
   "name": "Hamburg, PA PO",
   "kind": "maildrop",
   "lat": 40.555648,
   "lon": -75.981877,
   "mi_springer": null,
   "off": 0.0,
   "off_dir": "",
   "state": "",
   "parent_town": "Hamburg, PA"
  },
  {
   "id": "28683",
   "slug": "fine-lodging",
   "name": "Fine Lodging",
   "kind": "hotel",
   "lat": 40.748429,
   "lon": -75.611853,
   "mi_springer": null,
   "off": 0.0,
   "off_dir": "",
   "state": "",
   "parent_town": "Slatington, PA"
  },
  {
   "id": "28681",
   "slug": "slatington-diner",
   "name": "Slatington Diner",
   "kind": "restaurant",
   "lat": 40.748429,
   "lon": -75.611853,
   "mi_springer": null,
   "off": 0.0,
   "off_dir": "",
   "state": "",
   "parent_town": "Slatington, PA"
  },
  {
   "id": "28685",
   "slug": "the-shack",
   "name": "The Shack",
   "kind": "restaurant",
   "lat": 40.748429,
   "lon": -75.611853,
   "mi_springer": null,
   "off": 0.0,
   "off_dir": "",
   "state": "",
   "parent_town": "Slatington, PA"
  },
  {
   "id": "28682",
   "slug": "af-boyer-hardware",
   "name": "A.F. Boyer Hardware",
   "kind": "service",
   "lat": 40.748429,
   "lon": -75.611853,
   "mi_springer": null,
   "off": 0.0,
   "off_dir": "",
   "state": "",
   "parent_town": "Slatington, PA"
  },
  {
   "id": "28684",
   "slug": "slatington-pa-po",
   "name": "Slatington, PA PO",
   "kind": "maildrop",
   "lat": 40.748429,
   "lon": -75.611853,
   "mi_springer": null,
   "off": 0.0,
   "off_dir": "",
   "state": "",
   "parent_town": "Slatington, PA"
  },
  {
   "id": "28571",
   "slug": "borough-hall",
   "name": "Borough Hall",
   "kind": "hostel",
   "lat": 40.801483,
   "lon": -75.610187,
   "mi_springer": null,
   "off": 0.0,
   "off_dir": "",
   "state": "",
   "parent_town": "Palmerton, PA"
  },
  {
   "id": "28573",
   "slug": "the-palmerton-hotel",
   "name": "The Palmerton Hotel",
   "kind": "hotel",
   "lat": 40.801483,
   "lon": -75.610187,
   "mi_springer": null,
   "off": 0.0,
   "off_dir": "",
   "state": "",
   "parent_town": "Palmerton, PA"
  },
  {
   "id": "28567",
   "slug": "country-harvest",
   "name": "Country Harvest",
   "kind": "resupply",
   "lat": 40.801483,
   "lon": -75.610187,
   "mi_springer": null,
   "off": 0.0,
   "off_dir": "",
   "state": "",
   "parent_town": "Palmerton, PA"
  },
  {
   "id": "28574",
   "slug": "hunan-house-chinese",
   "name": "Hunan House Chinese",
   "kind": "restaurant",
   "lat": 40.801483,
   "lon": -75.610187,
   "mi_springer": null,
   "off": 0.0,
   "off_dir": "",
   "state": "",
   "parent_town": "Palmerton, PA"
  },
  {
   "id": "28570",
   "slug": "iga",
   "name": "IGA",
   "kind": "resupply",
   "lat": 40.801483,
   "lon": -75.610187,
   "mi_springer": null,
   "off": 0.0,
   "off_dir": "",
   "state": "",
   "parent_town": "Palmerton, PA"
  },
  {
   "id": "28568",
   "slug": "palmerton-pizza-and-restaurant",
   "name": "Palmerton Pizza and Restaurant",
   "kind": "restaurant",
   "lat": 40.801483,
   "lon": -75.610187,
   "mi_springer": null,
   "off": 0.0,
   "off_dir": "",
   "state": "",
   "parent_town": "Palmerton, PA"
  },
  {
   "id": "28572",
   "slug": "palmerton-pa-po",
   "name": "Palmerton, PA PO",
   "kind": "maildrop",
   "lat": 40.801483,
   "lon": -75.610187,
   "mi_springer": null,
   "off": 0.0,
   "off_dir": "",
   "state": "",
   "parent_town": "Palmerton, PA"
  },
  {
   "id": "28569",
   "slug": "sheas-hardware-and-sporting-goods",
   "name": "Sheas Hardware and Sporting Goods",
   "kind": "service",
   "lat": 40.801483,
   "lon": -75.610187,
   "mi_springer": null,
   "off": 0.0,
   "off_dir": "",
   "state": "",
   "parent_town": "Palmerton, PA"
  },
  {
   "id": "28193",
   "slug": "filbert-b",
   "name": "Filbert B",
   "kind": "hotel",
   "lat": 40.794792,
   "lon": -75.53294,
   "mi_springer": null,
   "off": 0.0,
   "off_dir": "",
   "state": "",
   "parent_town": "Danielsville, PA"
  },
  {
   "id": "28194",
   "slug": "blue-mountain-family-restaurant",
   "name": "Blue Mountain Family Restaurant",
   "kind": "restaurant",
   "lat": 40.794792,
   "lon": -75.53294,
   "mi_springer": null,
   "off": 0.0,
   "off_dir": "",
   "state": "",
   "parent_town": "Danielsville, PA"
  },
  {
   "id": "28192",
   "slug": "millers-market",
   "name": "Millers Market",
   "kind": "resupply",
   "lat": 40.794792,
   "lon": -75.53294,
   "mi_springer": null,
   "off": 0.0,
   "off_dir": "",
   "state": "",
   "parent_town": "Danielsville, PA"
  },
  {
   "id": "28191",
   "slug": "danielsville-pa-po",
   "name": "Danielsville, PA PO",
   "kind": "maildrop",
   "lat": 40.794792,
   "lon": -75.53294,
   "mi_springer": null,
   "off": 0.0,
   "off_dir": "",
   "state": "",
   "parent_town": "Danielsville, PA"
  },
  {
   "id": "28832",
   "slug": "travel-inn",
   "name": "Travel Inn",
   "kind": "hotel",
   "lat": 40.848151,
   "lon": -75.291569,
   "mi_springer": null,
   "off": 0.0,
   "off_dir": "",
   "state": "",
   "parent_town": "Wind Gap, PA"
  },
  {
   "id": "28831",
   "slug": "burger-king",
   "name": "Burger King",
   "kind": "restaurant",
   "lat": 40.848151,
   "lon": -75.291569,
   "mi_springer": null,
   "off": 0.0,
   "off_dir": "",
   "state": "",
   "parent_town": "Wind Gap, PA"
  },
  {
   "id": "28834",
   "slug": "giant-food-store",
   "name": "Giant Food Store",
   "kind": "resupply",
   "lat": 40.848151,
   "lon": -75.291569,
   "mi_springer": null,
   "off": 0.0,
   "off_dir": "",
   "state": "",
   "parent_town": "Wind Gap, PA"
  },
  {
   "id": "28836",
   "slug": "hong-kong-restaurant",
   "name": "Hong Kong Restaurant",
   "kind": "restaurant",
   "lat": 40.848151,
   "lon": -75.291569,
   "mi_springer": null,
   "off": 0.0,
   "off_dir": "",
   "state": "",
   "parent_town": "Wind Gap, PA"
  },
  {
   "id": "28837",
   "slug": "k-mart",
   "name": "K-Mart",
   "kind": "resupply",
   "lat": 40.848151,
   "lon": -75.291569,
   "mi_springer": null,
   "off": 0.0,
   "off_dir": "",
   "state": "",
   "parent_town": "Wind Gap, PA"
  },
  {
   "id": "28833",
   "slug": "subway",
   "name": "Subway",
   "kind": "restaurant",
   "lat": 40.848151,
   "lon": -75.291569,
   "mi_springer": null,
   "off": 0.0,
   "off_dir": "",
   "state": "",
   "parent_town": "Wind Gap, PA"
  },
  {
   "id": "28829",
   "slug": "sunoco-mini-mart",
   "name": "Sunoco Mini Mart",
   "kind": "resupply",
   "lat": 40.848151,
   "lon": -75.291569,
   "mi_springer": null,
   "off": 0.0,
   "off_dir": "",
   "state": "",
   "parent_town": "Wind Gap, PA"
  },
  {
   "id": "28830",
   "slug": "tonys-pizza",
   "name": "Tonys Pizza",
   "kind": "restaurant",
   "lat": 40.848151,
   "lon": -75.291569,
   "mi_springer": null,
   "off": 0.0,
   "off_dir": "",
   "state": "",
   "parent_town": "Wind Gap, PA"
  },
  {
   "id": "28838",
   "slug": "turkey-hill-mini-market",
   "name": "Turkey Hill Mini Market",
   "kind": "resupply",
   "lat": 40.848151,
   "lon": -75.291569,
   "mi_springer": null,
   "off": 0.0,
   "off_dir": "",
   "state": "",
   "parent_town": "Wind Gap, PA"
  },
  {
   "id": "28835",
   "slug": "wind-gap-pa-po",
   "name": "Wind Gap, PA PO",
   "kind": "maildrop",
   "lat": 40.848151,
   "lon": -75.291569,
   "mi_springer": null,
   "off": 0.0,
   "off_dir": "",
   "state": "",
   "parent_town": "Wind Gap, PA"
  },
  {
   "id": "28203",
   "slug": "deer-head-inn",
   "name": "Deer Head Inn",
   "kind": "hotel",
   "lat": 40.979262,
   "lon": -75.142956,
   "mi_springer": null,
   "off": 0.0,
   "off_dir": "",
   "state": "",
   "parent_town": "Delaware Water Gap, PA"
  },
  {
   "id": "28206",
   "slug": "presbyterian-church-of-the-mountain-hostel",
   "name": "Presbyterian Church of the Mountain Hostel",
   "kind": "hostel",
   "lat": 40.979262,
   "lon": -75.142956,
   "mi_springer": null,
   "off": 0.0,
   "off_dir": "",
   "state": "",
   "parent_town": "Delaware Water Gap, PA"
  },
  {
   "id": "28205",
   "slug": "bp-mini-mart",
   "name": "BP Mini Mart",
   "kind": "resupply",
   "lat": 40.979262,
   "lon": -75.142956,
   "mi_springer": null,
   "off": 0.0,
   "off_dir": "",
   "state": "",
   "parent_town": "Delaware Water Gap, PA"
  },
  {
   "id": "28207",
   "slug": "dwg-diner",
   "name": "DWG Diner",
   "kind": "restaurant",
   "lat": 40.979262,
   "lon": -75.142956,
   "mi_springer": null,
   "off": 0.0,
   "off_dir": "",
   "state": "",
   "parent_town": "Delaware Water Gap, PA"
  },
  {
   "id": "28202",
   "slug": "doughboy-pizza",
   "name": "Doughboy Pizza",
   "kind": "restaurant",
   "lat": 40.979262,
   "lon": -75.142956,
   "mi_springer": null,
   "off": 0.0,
   "off_dir": "",
   "state": "",
   "parent_town": "Delaware Water Gap, PA"
  },
  {
   "id": "28208",
   "slug": "gulf-mini-mart",
   "name": "Gulf Mini Mart",
   "kind": "resupply",
   "lat": 40.979262,
   "lon": -75.142956,
   "mi_springer": null,
   "off": 0.0,
   "off_dir": "",
   "state": "",
   "parent_town": "Delaware Water Gap, PA"
  },
  {
   "id": "28204",
   "slug": "delaware-water-gap-pa-po",
   "name": "Delaware Water Gap, PA PO",
   "kind": "maildrop",
   "lat": 40.979262,
   "lon": -75.142956,
   "mi_springer": null,
   "off": 0.0,
   "off_dir": "",
   "state": "",
   "parent_town": "Delaware Water Gap, PA"
  },
  {
   "id": "28201",
   "slug": "the-pack-shack",
   "name": "The Pack Shack",
   "kind": "outfitter",
   "lat": 40.979262,
   "lon": -75.142956,
   "mi_springer": null,
   "off": 0.0,
   "off_dir": "",
   "state": "",
   "parent_town": "Delaware Water Gap, PA"
  },
  {
   "id": "28087",
   "slug": "a-and-g-pizza--restaurant",
   "name": "A and G Pizza  Restaurant",
   "kind": "restaurant",
   "lat": 41.146485,
   "lon": -74.752387,
   "mi_springer": null,
   "off": 0.0,
   "off_dir": "",
   "state": "",
   "parent_town": "Branchville, NJ"
  },
  {
   "id": "28086",
   "slug": "belchers-village-market",
   "name": "Belchers Village Market",
   "kind": "resupply",
   "lat": 41.146485,
   "lon": -74.752387,
   "mi_springer": null,
   "off": 0.0,
   "off_dir": "",
   "state": "",
   "parent_town": "Branchville, NJ"
  },
  {
   "id": "28084",
   "slug": "china-one",
   "name": "China One",
   "kind": "restaurant",
   "lat": 41.146485,
   "lon": -74.752387,
   "mi_springer": null,
   "off": 0.0,
   "off_dir": "",
   "state": "",
   "parent_town": "Branchville, NJ"
  },
  {
   "id": "28085",
   "slug": "branchville-nj-po",
   "name": "Branchville, NJ PO",
   "kind": "maildrop",
   "lat": 41.146485,
   "lon": -74.752387,
   "mi_springer": null,
   "off": 0.0,
   "off_dir": "",
   "state": "",
   "parent_town": "Branchville, NJ"
  },
  {
   "id": "28760",
   "slug": "annabels-pizza--italian-restaurant",
   "name": "Annabels Pizza  Italian Restaurant",
   "kind": "restaurant",
   "lat": 41.302039,
   "lon": -74.561549,
   "mi_springer": null,
   "off": 0.0,
   "off_dir": "",
   "state": "",
   "parent_town": "Unionville, NY"
  },
  {
   "id": "28759",
   "slug": "horlers-store",
   "name": "Horlers Store",
   "kind": "restaurant",
   "lat": 41.302039,
   "lon": -74.561549,
   "mi_springer": null,
   "off": 0.0,
   "off_dir": "",
   "state": "",
   "parent_town": "Unionville, NY"
  },
  {
   "id": "28758",
   "slug": "unionville-ny-po",
   "name": "Unionville, NY PO",
   "kind": "maildrop",
   "lat": 41.302039,
   "lon": -74.561549,
   "mi_springer": null,
   "off": 0.0,
   "off_dir": "",
   "state": "",
   "parent_town": "Unionville, NY"
  },
  {
   "id": "28311",
   "slug": "apple-valley-inn-and-b-and-b",
   "name": "Apple Valley Inn and B and B",
   "kind": "hotel",
   "lat": 41.251824,
   "lon": -74.487392,
   "mi_springer": null,
   "off": 0.0,
   "off_dir": "",
   "state": "",
   "parent_town": "Glenwood, NJ"
  },
  {
   "id": "28312",
   "slug": "pochuck-valley-farm-market-and-deli",
   "name": "Pochuck Valley Farm Market and Deli",
   "kind": "resupply",
   "lat": 41.251824,
   "lon": -74.487392,
   "mi_springer": null,
   "off": 0.0,
   "off_dir": "",
   "state": "",
   "parent_town": "Glenwood, NJ"
  },
  {
   "id": "28310",
   "slug": "glenwood-nj-po",
   "name": "Glenwood, NJ PO",
   "kind": "maildrop",
   "lat": 41.251824,
   "lon": -74.487392,
   "mi_springer": null,
   "off": 0.0,
   "off_dir": "",
   "state": "",
   "parent_town": "Glenwood, NJ"
  },
  {
   "id": "28768",
   "slug": "st-thomas-episcopal-church",
   "name": "St. Thomas Episcopal Church",
   "kind": "hostel",
   "lat": 41.194702,
   "lon": -74.493794,
   "mi_springer": null,
   "off": 0.0,
   "off_dir": "",
   "state": "",
   "parent_town": "Vernon, NJ"
  },
  {
   "id": "28765",
   "slug": "a-and-p-supermarket",
   "name": "A and P Supermarket",
   "kind": "resupply",
   "lat": 41.194702,
   "lon": -74.493794,
   "mi_springer": null,
   "off": 0.0,
   "off_dir": "",
   "state": "",
   "parent_town": "Vernon, NJ"
  },
  {
   "id": "28767",
   "slug": "dunkin-donuts",
   "name": "Dunkin Donuts",
   "kind": "restaurant",
   "lat": 41.194702,
   "lon": -74.493794,
   "mi_springer": null,
   "off": 0.0,
   "off_dir": "",
   "state": "",
   "parent_town": "Vernon, NJ"
  },
  {
   "id": "28766",
   "slug": "little-anthonys-pizzeria",
   "name": "Little Anthonys Pizzeria",
   "kind": "restaurant",
   "lat": 41.194702,
   "lon": -74.493794,
   "mi_springer": null,
   "off": 0.0,
   "off_dir": "",
   "state": "",
   "parent_town": "Vernon, NJ"
  },
  {
   "id": "28764",
   "slug": "vernon-urgent-care",
   "name": "Vernon Urgent Care",
   "kind": "medical",
   "lat": 41.194702,
   "lon": -74.493794,
   "mi_springer": null,
   "off": 0.0,
   "off_dir": "",
   "state": "",
   "parent_town": "Vernon, NJ"
  },
  {
   "id": "28769",
   "slug": "vernon-nj-po",
   "name": "Vernon, NJ PO",
   "kind": "maildrop",
   "lat": 41.194702,
   "lon": -74.493794,
   "mi_springer": null,
   "off": 0.0,
   "off_dir": "",
   "state": "",
   "parent_town": "Vernon, NJ"
  },
  {
   "id": "28786",
   "slug": "warwick-motel",
   "name": "Warwick Motel",
   "kind": "hotel",
   "lat": 41.256483,
   "lon": -74.359876,
   "mi_springer": null,
   "off": 0.0,
   "off_dir": "",
   "state": "",
   "parent_town": "Warwick, NY"
  },
  {
   "id": "28785",
   "slug": "shoprite",
   "name": "ShopRite",
   "kind": "resupply",
   "lat": 41.256483,
   "lon": -74.359876,
   "mi_springer": null,
   "off": 0.0,
   "off_dir": "",
   "state": "",
   "parent_town": "Warwick, NY"
  },
  {
   "id": "28787",
   "slug": "warwick-ny-po",
   "name": "Warwick, NY PO",
   "kind": "maildrop",
   "lat": 41.256483,
   "lon": -74.359876,
   "mi_springer": null,
   "off": 0.0,
   "off_dir": "",
   "state": "",
   "parent_town": "Warwick, NY"
  },
  {
   "id": "28700",
   "slug": "tuxedo-motel",
   "name": "Tuxedo Motel",
   "kind": "hotel",
   "lat": 41.244676,
   "lon": -74.175852,
   "mi_springer": null,
   "off": 0.0,
   "off_dir": "",
   "state": "",
   "parent_town": "Southfields, NY"
  },
  {
   "id": "28702",
   "slug": "baleros",
   "name": "Baleros",
   "kind": "restaurant",
   "lat": 41.244676,
   "lon": -74.175852,
   "mi_springer": null,
   "off": 0.0,
   "off_dir": "",
   "state": "",
   "parent_town": "Southfields, NY"
  },
  {
   "id": "28701",
   "slug": "southfields-ny-po",
   "name": "Southfields, NY PO",
   "kind": "maildrop",
   "lat": 41.244676,
   "lon": -74.175852,
   "mi_springer": null,
   "off": 0.0,
   "off_dir": "",
   "state": "",
   "parent_town": "Southfields, NY"
  },
  {
   "id": "28280",
   "slug": "bear-mountain-bridge-motel",
   "name": "Bear Mountain Bridge Motel",
   "kind": "hotel",
   "lat": 41.331483,
   "lon": -73.986807,
   "mi_springer": null,
   "off": 0.0,
   "off_dir": "",
   "state": "",
   "parent_town": "Ft. Montgomery, NY"
  },
  {
   "id": "28281",
   "slug": "holiday-inn-express",
   "name": "Holiday Inn Express",
   "kind": "hotel",
   "lat": 41.331483,
   "lon": -73.986807,
   "mi_springer": null,
   "off": 0.0,
   "off_dir": "",
   "state": "",
   "parent_town": "Ft. Montgomery, NY"
  },
  {
   "id": "28283",
   "slug": "mobil-mini-mart",
   "name": "Mobil Mini Mart",
   "kind": "resupply",
   "lat": 41.331483,
   "lon": -73.986807,
   "mi_springer": null,
   "off": 0.0,
   "off_dir": "",
   "state": "",
   "parent_town": "Ft. Montgomery, NY"
  },
  {
   "id": "28282",
   "slug": "ft-montgomery-ny-po",
   "name": "Ft. Montgomery, NY PO",
   "kind": "maildrop",
   "lat": 41.331483,
   "lon": -73.986807,
   "mi_springer": null,
   "off": 0.0,
   "off_dir": "",
   "state": "",
   "parent_town": "Ft. Montgomery, NY"
  },
  {
   "id": "28596",
   "slug": "peekskill-ny-po",
   "name": "Peekskill, NY PO",
   "kind": "maildrop",
   "lat": 41.290094,
   "lon": -73.920416,
   "mi_springer": null,
   "off": 0.0,
   "off_dir": "",
   "state": "",
   "parent_town": "Peekskill, NY"
  },
  {
   "id": "28714",
   "slug": "stormville-ny-po",
   "name": "Stormville, NY PO",
   "kind": "maildrop",
   "lat": 41.57028,
   "lon": -73.74583,
   "mi_springer": null,
   "off": 0.0,
   "off_dir": "",
   "state": "",
   "parent_town": "Stormville, NY"
  },
  {
   "id": "28625",
   "slug": "poughquag-ny-po",
   "name": "Poughquag, NY PO",
   "kind": "maildrop",
   "lat": 41.60342,
   "lon": -73.682945,
   "mi_springer": null,
   "off": 0.0,
   "off_dir": "",
   "state": "",
   "parent_town": "Poughquag, NY"
  },
  {
   "id": "28578",
   "slug": "pawling-ny-po",
   "name": "Pawling, NY PO",
   "kind": "maildrop",
   "lat": 41.562038,
   "lon": -73.602627,
   "mi_springer": null,
   "off": 0.0,
   "off_dir": "",
   "state": "",
   "parent_town": "Pawling, NY"
  },
  {
   "id": "28840",
   "slug": "wingdale-ny-po",
   "name": "Wingdale, NY PO",
   "kind": "maildrop",
   "lat": 41.646868,
   "lon": -73.567825,
   "mi_springer": null,
   "off": 0.0,
   "off_dir": "",
   "state": "",
   "parent_town": "Wingdale, NY"
  },
  {
   "id": "28298",
   "slug": "gaylordsville-country-store",
   "name": "Gaylordsville Country Store",
   "kind": "restaurant",
   "lat": 41.646483,
   "lon": -73.484291,
   "mi_springer": null,
   "off": 0.0,
   "off_dir": "",
   "state": "",
   "parent_town": "Gaylordsville, CT"
  },
  {
   "id": "28297",
   "slug": "gaylordsville-ct-po",
   "name": "Gaylordsville, CT PO",
   "kind": "maildrop",
   "lat": 41.646483,
   "lon": -73.484291,
   "mi_springer": null,
   "off": 0.0,
   "off_dir": "",
   "state": "",
   "parent_town": "Gaylordsville, CT"
  },
  {
   "id": "28422",
   "slug": "fife-n-drum-inn-and-restaurant",
   "name": "Fife n Drum Inn and Restaurant",
   "kind": "hotel",
   "lat": 41.724755,
   "lon": -73.476964,
   "mi_springer": null,
   "off": 0.0,
   "off_dir": "",
   "state": "",
   "parent_town": "Kent, CT"
  },
  {
   "id": "28424",
   "slug": "starbuck-inn",
   "name": "Starbuck Inn",
   "kind": "hotel",
   "lat": 41.724755,
   "lon": -73.476964,
   "mi_springer": null,
   "off": 0.0,
   "off_dir": "",
   "state": "",
   "parent_town": "Kent, CT"
  },
  {
   "id": "28428",
   "slug": "davis-iga",
   "name": "Davis IGA",
   "kind": "resupply",
   "lat": 41.724755,
   "lon": -73.476964,
   "mi_springer": null,
   "off": 0.0,
   "off_dir": "",
   "state": "",
   "parent_town": "Kent, CT"
  },
  {
   "id": "28429",
   "slug": "kent-market",
   "name": "Kent Market",
   "kind": "restaurant",
   "lat": 41.724755,
   "lon": -73.476964,
   "mi_springer": null,
   "off": 0.0,
   "off_dir": "",
   "state": "",
   "parent_town": "Kent, CT"
  },
  {
   "id": "28427",
   "slug": "shanghai-chinese",
   "name": "Shanghai Chinese",
   "kind": "restaurant",
   "lat": 41.724755,
   "lon": -73.476964,
   "mi_springer": null,
   "off": 0.0,
   "off_dir": "",
   "state": "",
   "parent_town": "Kent, CT"
  },
  {
   "id": "28425",
   "slug": "backcountry-outfitters",
   "name": "Backcountry Outfitters",
   "kind": "outfitter",
   "lat": 41.724755,
   "lon": -73.476964,
   "mi_springer": null,
   "off": 0.0,
   "off_dir": "",
   "state": "",
   "parent_town": "Kent, CT"
  },
  {
   "id": "28426",
   "slug": "kent-ct-po",
   "name": "Kent, CT PO",
   "kind": "maildrop",
   "lat": 41.724755,
   "lon": -73.476964,
   "mi_springer": null,
   "off": 0.0,
   "off_dir": "",
   "state": "",
   "parent_town": "Kent, CT"
  },
  {
   "id": "28142",
   "slug": "hitching-post-motel",
   "name": "Hitching Post Motel",
   "kind": "hotel",
   "lat": 41.818283,
   "lon": -73.368271,
   "mi_springer": null,
   "off": 0.0,
   "off_dir": "",
   "state": "",
   "parent_town": "Cornwall Bridge, CT"
  },
  {
   "id": "28144",
   "slug": "housatonic-meadows-lodge-b-and-b",
   "name": "Housatonic Meadows Lodge B and B",
   "kind": "hotel",
   "lat": 41.818283,
   "lon": -73.368271,
   "mi_springer": null,
   "off": 0.0,
   "off_dir": "",
   "state": "",
   "parent_town": "Cornwall Bridge, CT"
  },
  {
   "id": "28143",
   "slug": "bairds-general-store",
   "name": "Bairds General Store",
   "kind": "restaurant",
   "lat": 41.818283,
   "lon": -73.368271,
   "mi_springer": null,
   "off": 0.0,
   "off_dir": "",
   "state": "",
   "parent_town": "Cornwall Bridge, CT"
  },
  {
   "id": "28145",
   "slug": "cornwall-bridge-ct-po",
   "name": "Cornwall Bridge, CT PO",
   "kind": "maildrop",
   "lat": 41.818283,
   "lon": -73.368271,
   "mi_springer": null,
   "off": 0.0,
   "off_dir": "",
   "state": "",
   "parent_town": "Cornwall Bridge, CT"
  },
  {
   "id": "28146",
   "slug": "housatonic-river-outfitters",
   "name": "Housatonic River Outfitters",
   "kind": "outfitter",
   "lat": 41.818283,
   "lon": -73.368271,
   "mi_springer": null,
   "off": 0.0,
   "off_dir": "",
   "state": "",
   "parent_town": "Cornwall Bridge, CT"
  },
  {
   "id": "28809",
   "slug": "wandering-moose-cafe",
   "name": "Wandering Moose Cafe",
   "kind": "restaurant",
   "lat": 41.871425,
   "lon": -73.361796,
   "mi_springer": null,
   "off": 0.0,
   "off_dir": "",
   "state": "",
   "parent_town": "West Cornwall, CT"
  },
  {
   "id": "28808",
   "slug": "west-cornwall-market",
   "name": "West Cornwall Market",
   "kind": "resupply",
   "lat": 41.871425,
   "lon": -73.361796,
   "mi_springer": null,
   "off": 0.0,
   "off_dir": "",
   "state": "",
   "parent_town": "West Cornwall, CT"
  },
  {
   "id": "28811",
   "slug": "clarke-outdoors",
   "name": "Clarke Outdoors",
   "kind": "outfitter",
   "lat": 41.871425,
   "lon": -73.361796,
   "mi_springer": null,
   "off": 0.0,
   "off_dir": "",
   "state": "",
   "parent_town": "West Cornwall, CT"
  },
  {
   "id": "28810",
   "slug": "west-cornwall-ct-po",
   "name": "West Cornwall, CT PO",
   "kind": "maildrop",
   "lat": 41.871425,
   "lon": -73.361796,
   "mi_springer": null,
   "off": 0.0,
   "off_dir": "",
   "state": "",
   "parent_town": "West Cornwall, CT"
  },
  {
   "id": "28243",
   "slug": "horsetail-farm-b-and-b",
   "name": "Horsetail Farm B and B",
   "kind": "hotel",
   "lat": 41.95502,
   "lon": -73.365058,
   "mi_springer": null,
   "off": 0.0,
   "off_dir": "",
   "state": "",
   "parent_town": "Falls Village, CT"
  },
  {
   "id": "28242",
   "slug": "toymakers-cafe",
   "name": "Toymakers Cafe",
   "kind": "restaurant",
   "lat": 41.95502,
   "lon": -73.365058,
   "mi_springer": null,
   "off": 0.0,
   "off_dir": "",
   "state": "",
   "parent_town": "Falls Village, CT"
  },
  {
   "id": "28241",
   "slug": "falls-village-ct-po",
   "name": "Falls Village, CT PO",
   "kind": "maildrop",
   "lat": 41.95502,
   "lon": -73.365058,
   "mi_springer": null,
   "off": 0.0,
   "off_dir": "",
   "state": "",
   "parent_town": "Falls Village, CT"
  },
  {
   "id": "28666",
   "slug": "maria-mccabe",
   "name": "Maria McCabe",
   "kind": "hostel",
   "lat": 41.981567,
   "lon": -73.422501,
   "mi_springer": null,
   "off": 0.0,
   "off_dir": "",
   "state": "",
   "parent_town": "Salisbury, CT"
  },
  {
   "id": "28665",
   "slug": "vanessa-breton",
   "name": "Vanessa Breton",
   "kind": "hostel",
   "lat": 41.981567,
   "lon": -73.422501,
   "mi_springer": null,
   "off": 0.0,
   "off_dir": "",
   "state": "",
   "parent_town": "Salisbury, CT"
  },
  {
   "id": "28662",
   "slug": "labonnes-epicure-market",
   "name": "LaBonnes Epicure Market",
   "kind": "resupply",
   "lat": 41.981567,
   "lon": -73.422501,
   "mi_springer": null,
   "off": 0.0,
   "off_dir": "",
   "state": "",
   "parent_town": "Salisbury, CT"
  },
  {
   "id": "28663",
   "slug": "the-roast-coffee-house",
   "name": "The Roast Coffee House",
   "kind": "restaurant",
   "lat": 41.981567,
   "lon": -73.422501,
   "mi_springer": null,
   "off": 0.0,
   "off_dir": "",
   "state": "",
   "parent_town": "Salisbury, CT"
  },
  {
   "id": "28664",
   "slug": "salisbury-ct-po",
   "name": "Salisbury, CT PO",
   "kind": "maildrop",
   "lat": 41.981567,
   "lon": -73.422501,
   "mi_springer": null,
   "off": 0.0,
   "off_dir": "",
   "state": "",
   "parent_town": "Salisbury, CT"
  },
  {
   "id": "28697",
   "slug": "weathervane-inn",
   "name": "Weathervane Inn",
   "kind": "hotel",
   "lat": 42.160646,
   "lon": -73.416226,
   "mi_springer": null,
   "off": 0.0,
   "off_dir": "",
   "state": "",
   "parent_town": "South Egremont, MA"
  },
  {
   "id": "28694",
   "slug": "country-market",
   "name": "Country Market",
   "kind": "restaurant",
   "lat": 42.160646,
   "lon": -73.416226,
   "mi_springer": null,
   "off": 0.0,
   "off_dir": "",
   "state": "",
   "parent_town": "South Egremont, MA"
  },
  {
   "id": "28696",
   "slug": "moms-country-cafe",
   "name": "Moms Country Cafe",
   "kind": "restaurant",
   "lat": 42.160646,
   "lon": -73.416226,
   "mi_springer": null,
   "off": 0.0,
   "off_dir": "",
   "state": "",
   "parent_town": "South Egremont, MA"
  },
  {
   "id": "28695",
   "slug": "south-egremont-ma-po",
   "name": "South Egremont, MA PO",
   "kind": "maildrop",
   "lat": 42.160646,
   "lon": -73.416226,
   "mi_springer": null,
   "off": 0.0,
   "off_dir": "",
   "state": "",
   "parent_town": "South Egremont, MA"
  },
  {
   "id": "28327",
   "slug": "days-inn",
   "name": "Days Inn",
   "kind": "hotel",
   "lat": 42.19598,
   "lon": -73.362008,
   "mi_springer": null,
   "off": 0.0,
   "off_dir": "",
   "state": "",
   "parent_town": "Great Barrington, MA"
  },
  {
   "id": "28330",
   "slug": "big-y-foods",
   "name": "Big Y Foods",
   "kind": "resupply",
   "lat": 42.19598,
   "lon": -73.362008,
   "mi_springer": null,
   "off": 0.0,
   "off_dir": "",
   "state": "",
   "parent_town": "Great Barrington, MA"
  },
  {
   "id": "28328",
   "slug": "price-chopper",
   "name": "Price Chopper",
   "kind": "resupply",
   "lat": 42.19598,
   "lon": -73.362008,
   "mi_springer": null,
   "off": 0.0,
   "off_dir": "",
   "state": "",
   "parent_town": "Great Barrington, MA"
  },
  {
   "id": "28329",
   "slug": "great-barrington-ma-po",
   "name": "Great Barrington, MA PO",
   "kind": "maildrop",
   "lat": 42.19598,
   "lon": -73.362008,
   "mi_springer": null,
   "off": 0.0,
   "off_dir": "",
   "state": "",
   "parent_town": "Great Barrington, MA"
  },
  {
   "id": "28527",
   "slug": "monterey-general-store",
   "name": "Monterey General Store",
   "kind": "resupply",
   "lat": 42.181013,
   "lon": -73.205759,
   "mi_springer": null,
   "off": 0.0,
   "off_dir": "",
   "state": "",
   "parent_town": "Monterey, MA"
  },
  {
   "id": "28526",
   "slug": "monterey-ma-po",
   "name": "Monterey, MA PO",
   "kind": "maildrop",
   "lat": 42.181013,
   "lon": -73.205759,
   "mi_springer": null,
   "off": 0.0,
   "off_dir": "",
   "state": "",
   "parent_town": "Monterey, MA"
  },
  {
   "id": "28754",
   "slug": "cobble-view-b-and-b",
   "name": "Cobble View B and B",
   "kind": "hotel",
   "lat": 42.245833,
   "lon": -73.204167,
   "mi_springer": null,
   "off": 0.0,
   "off_dir": "",
   "state": "",
   "parent_town": "Tyringham, MA"
  },
  {
   "id": "28753",
   "slug": "tyringham-ma-po",
   "name": "Tyringham, MA PO",
   "kind": "maildrop",
   "lat": 42.245833,
   "lon": -73.204167,
   "mi_springer": null,
   "off": 0.0,
   "off_dir": "",
   "state": "",
   "parent_town": "Tyringham, MA"
  },
  {
   "id": "28443",
   "slug": "rodeway-inn",
   "name": "Rodeway Inn",
   "kind": "hotel",
   "lat": 42.304215,
   "lon": -73.248195,
   "mi_springer": null,
   "off": 0.0,
   "off_dir": "",
   "state": "",
   "parent_town": "Lee, MA"
  },
  {
   "id": "28444",
   "slug": "athenas-pizza-house",
   "name": "Athenas Pizza House",
   "kind": "restaurant",
   "lat": 42.304215,
   "lon": -73.248195,
   "mi_springer": null,
   "off": 0.0,
   "off_dir": "",
   "state": "",
   "parent_town": "Lee, MA"
  },
  {
   "id": "28441",
   "slug": "joes-diner",
   "name": "Joes Diner",
   "kind": "restaurant",
   "lat": 42.304215,
   "lon": -73.248195,
   "mi_springer": null,
   "off": 0.0,
   "off_dir": "",
   "state": "",
   "parent_town": "Lee, MA"
  },
  {
   "id": "28442",
   "slug": "price-chopper",
   "name": "Price Chopper",
   "kind": "resupply",
   "lat": 42.304215,
   "lon": -73.248195,
   "mi_springer": null,
   "off": 0.0,
   "off_dir": "",
   "state": "",
   "parent_town": "Lee, MA"
  },
  {
   "id": "28440",
   "slug": "lee-ma-po",
   "name": "Lee, MA PO",
   "kind": "maildrop",
   "lat": 42.304215,
   "lon": -73.248195,
   "mi_springer": null,
   "off": 0.0,
   "off_dir": "",
   "state": "",
   "parent_town": "Lee, MA"
  },
  {
   "id": "28129",
   "slug": "hd-reynolds",
   "name": "H.D. Reynolds",
   "kind": "resupply",
   "lat": 42.557079,
   "lon": -73.157158,
   "mi_springer": null,
   "off": 0.0,
   "off_dir": "",
   "state": "",
   "parent_town": "Cheshire, MA"
  },
  {
   "id": "28130",
   "slug": "cheshire-ma-po",
   "name": "Cheshire, MA PO",
   "kind": "maildrop",
   "lat": 42.557079,
   "lon": -73.157158,
   "mi_springer": null,
   "off": 0.0,
   "off_dir": "",
   "state": "",
   "parent_town": "Cheshire, MA"
  },
  {
   "id": "28005",
   "slug": "mount-greylock-inn",
   "name": "Mount Greylock Inn",
   "kind": "hotel",
   "lat": 42.624225,
   "lon": -73.117434,
   "mi_springer": null,
   "off": 0.0,
   "off_dir": "",
   "state": "",
   "parent_town": "Adams, MA"
  },
  {
   "id": "28007",
   "slug": "big-y-foods",
   "name": "Big Y Foods",
   "kind": "resupply",
   "lat": 42.624225,
   "lon": -73.117434,
   "mi_springer": null,
   "off": 0.0,
   "off_dir": "",
   "state": "",
   "parent_town": "Adams, MA"
  },
  {
   "id": "28004",
   "slug": "pizza-jims",
   "name": "Pizza Jims",
   "kind": "restaurant",
   "lat": 42.624225,
   "lon": -73.117434,
   "mi_springer": null,
   "off": 0.0,
   "off_dir": "",
   "state": "",
   "parent_town": "Adams, MA"
  },
  {
   "id": "28006",
   "slug": "adams-ma-po",
   "name": "Adams, MA PO",
   "kind": "maildrop",
   "lat": 42.624225,
   "lon": -73.117434,
   "mi_springer": null,
   "off": 0.0,
   "off_dir": "",
   "state": "",
   "parent_town": "Adams, MA"
  },
  {
   "id": "28823",
   "slug": "howard-johnson",
   "name": "Howard Johnson",
   "kind": "hotel",
   "lat": 42.71202,
   "lon": -73.20369,
   "mi_springer": null,
   "off": 0.0,
   "off_dir": "",
   "state": "",
   "parent_town": "Williamstown, MA"
  },
  {
   "id": "28820",
   "slug": "williamstown-motel",
   "name": "Williamstown Motel",
   "kind": "hotel",
   "lat": 42.71202,
   "lon": -73.20369,
   "mi_springer": null,
   "off": 0.0,
   "off_dir": "",
   "state": "",
   "parent_town": "Williamstown, MA"
  },
  {
   "id": "28825",
   "slug": "angelinas-subs",
   "name": "Angelinas Subs",
   "kind": "restaurant",
   "lat": 42.71202,
   "lon": -73.20369,
   "mi_springer": null,
   "off": 0.0,
   "off_dir": "",
   "state": "",
   "parent_town": "Williamstown, MA"
  },
  {
   "id": "28824",
   "slug": "chopsticks-asian",
   "name": "Chopsticks Asian",
   "kind": "restaurant",
   "lat": 42.71202,
   "lon": -73.20369,
   "mi_springer": null,
   "off": 0.0,
   "off_dir": "",
   "state": "",
   "parent_town": "Williamstown, MA"
  },
  {
   "id": "28817",
   "slug": "desperados-mexican-grille",
   "name": "Desperados Mexican Grille",
   "kind": "restaurant",
   "lat": 42.71202,
   "lon": -73.20369,
   "mi_springer": null,
   "off": 0.0,
   "off_dir": "",
   "state": "",
   "parent_town": "Williamstown, MA"
  },
  {
   "id": "28819",
   "slug": "spice-root",
   "name": "Spice Root",
   "kind": "restaurant",
   "lat": 42.71202,
   "lon": -73.20369,
   "mi_springer": null,
   "off": 0.0,
   "off_dir": "",
   "state": "",
   "parent_town": "Williamstown, MA"
  },
  {
   "id": "28822",
   "slug": "thai-garden",
   "name": "Thai Garden",
   "kind": "restaurant",
   "lat": 42.71202,
   "lon": -73.20369,
   "mi_springer": null,
   "off": 0.0,
   "off_dir": "",
   "state": "",
   "parent_town": "Williamstown, MA"
  },
  {
   "id": "28818",
   "slug": "wild-oats-whole-foods-market",
   "name": "Wild Oats Whole Foods Market",
   "kind": "resupply",
   "lat": 42.71202,
   "lon": -73.20369,
   "mi_springer": null,
   "off": 0.0,
   "off_dir": "",
   "state": "",
   "parent_town": "Williamstown, MA"
  },
  {
   "id": "28826",
   "slug": "american-cab-and-livery",
   "name": "American Cab and Livery",
   "kind": "service",
   "lat": 42.71202,
   "lon": -73.20369,
   "mi_springer": null,
   "off": 0.0,
   "off_dir": "",
   "state": "",
   "parent_town": "Williamstown, MA"
  },
  {
   "id": "28821",
   "slug": "williamstown-ma-po",
   "name": "Williamstown, MA PO",
   "kind": "maildrop",
   "lat": 42.71202,
   "lon": -73.20369,
   "mi_springer": null,
   "off": 0.0,
   "off_dir": "",
   "state": "",
   "parent_town": "Williamstown, MA"
  },
  {
   "id": "28038",
   "slug": "autumn-inn",
   "name": "Autumn Inn",
   "kind": "hotel",
   "lat": 42.878094,
   "lon": -73.1968,
   "mi_springer": null,
   "off": 0.0,
   "off_dir": "",
   "state": "",
   "parent_town": "Bennington, VT"
  },
  {
   "id": "28040",
   "slug": "henrys-market",
   "name": "Henrys Market",
   "kind": "resupply",
   "lat": 42.878094,
   "lon": -73.1968,
   "mi_springer": null,
   "off": 0.0,
   "off_dir": "",
   "state": "",
   "parent_town": "Bennington, VT"
  },
  {
   "id": "28041",
   "slug": "rattlesnake-cafe",
   "name": "Rattlesnake Cafe",
   "kind": "restaurant",
   "lat": 42.878094,
   "lon": -73.1968,
   "mi_springer": null,
   "off": 0.0,
   "off_dir": "",
   "state": "",
   "parent_town": "Bennington, VT"
  },
  {
   "id": "28043",
   "slug": "spice-and-nice-natural-foods",
   "name": "Spice and Nice Natural Foods",
   "kind": "resupply",
   "lat": 42.878094,
   "lon": -73.1968,
   "mi_springer": null,
   "off": 0.0,
   "off_dir": "",
   "state": "",
   "parent_town": "Bennington, VT"
  },
  {
   "id": "28042",
   "slug": "bennington-taxi",
   "name": "Bennington Taxi",
   "kind": "service",
   "lat": 42.878094,
   "lon": -73.1968,
   "mi_springer": null,
   "off": 0.0,
   "off_dir": "",
   "state": "",
   "parent_town": "Bennington, VT"
  },
  {
   "id": "28039",
   "slug": "bennington-vt-po",
   "name": "Bennington, VT PO",
   "kind": "maildrop",
   "lat": 42.878094,
   "lon": -73.1968,
   "mi_springer": null,
   "off": 0.0,
   "off_dir": "",
   "state": "",
   "parent_town": "Bennington, VT"
  },
  {
   "id": "28497",
   "slug": "green-mountain-house",
   "name": "Green Mountain House",
   "kind": "hostel",
   "lat": 43.177021,
   "lon": -73.057049,
   "mi_springer": null,
   "off": 0.0,
   "off_dir": "",
   "state": "",
   "parent_town": "Manchester Center, VT"
  },
  {
   "id": "28490",
   "slug": "suttons-place",
   "name": "Suttons Place",
   "kind": "hotel",
   "lat": 43.177021,
   "lon": -73.057049,
   "mi_springer": null,
   "off": 0.0,
   "off_dir": "",
   "state": "",
   "parent_town": "Manchester Center, VT"
  },